id;raison_sociale;mobile;mail;latitude;longitude;type;categorie;adresse;code_postale;commune;telephone;internet;classement;marque;tourisme;;
1;Le Cap;;;44.641613;-1.2031785;Restaurant;Cuisine traditionnelle;1  avenue Notre Dame des Passes;33120;ARCACHON;+33 5 56 54 53 93;;;;;1; avenue Notre Dame des Passes
2;Le Chipiron;;;44.656445;-1.147182;Restaurant;Cuisine traditionnelle;11  rue de la Pècherie;33120;ARCACHON;+33 5 57 52 06 33;www.lechipiron.com;;;;11; rue de la Pècherie
3;Le Grand Bleu;;;44.65762;-1.1495486;Restaurant;Cuisine traditionnelle;30  boulevard de la Plage;33120;ARCACHON;+33 5 56 54 92 92;http://restaurant-le-grand-bleu.com;;;;30; boulevard de la Plage
4;Le Thiers;;;44.66328;-1.166554;Restaurant;Cuisine traditionnelle;9  boulevard Veyrier Montagnères;33120;ARCACHON;+33 5 56 83 33 17;www.lethiers.com;;;;9; boulevard Veyrier Montagnères
5;Le Cabestan;;;44.662136;-1.1644613;Restaurant;Cuisine traditionnelle;6 bis  avenue du Général de Gaulle;33120;ARCACHON;+33 5 56 83 18 62;www.everyoneweb.com/restaurantlecabestan;;;;6 bis; avenue du Général de Gaulle
6;La Table du Boucher;;;44.662052;-1.1723828;Restaurant;Cuisine traditionnelle;16  rue du Mal de Lattre de Tassigny;33120;ARCACHON;+33 5 56 54 06 28;;;;;16; rue du Mal de Lattre de Tassigny
7;Le Petit Louvre Café;;;44.661083;-1.1709651;Restaurant;Cuisine traditionnelleBrasserie;14 place Lucien de Gracia ;33120;ARCACHON;+33 5 57 15 73 59;;;;;14 place Lucien de Gracia;
8;Le Victoria;;;44.663227;-1.1682272;Restaurant;Cuisine traditionnelleBrasserie;26  boulevard Veyrier Montagnères;33120;ARCACHON;+33 5 56 83 07 75;;;;;26; boulevard Veyrier Montagnères
9;Café de la Plage-Restaurant Chez Pierre;;;44.66343;-1.166062;Restaurant;Cuisine traditionnelleBrasserie;1  boulevard Veyrier Montagnères;33120;ARCACHON;+33 5 56 22 52 94;www.cafedelaplage.com;;;;1; boulevard Veyrier Montagnères
10;Bar-restaurant du Soleil;;;44.652702;-1.194849;Restaurant;Cuisine traditionnelleBrasserieCrèperieGrillRestauration rapide;Avenue des Goà«lands plage Péreire;33120;ARCACHON;+33 5 56 83 90 74;;;;;Avenue des Goà«lands;plage Péreire
11;Le Floréal;;;44.65988;-1.1665611;Restaurant;Cuisine traditionnelleBrasseriePizzeria;49  boulevard du Général Leclerc;33120;ARCACHON;+33 5 56 83 48 44;;;;;49; boulevard du Général Leclerc
12;Le Royal Moulleau;;;44.641;-1.2018309;Restaurant;Cuisine traditionnellePizzeria;2  rue du Débarcadère;33120;ARCACHON;+33 5 56 54 57 45;www.le-royal-moulleau.com;;;;2; rue du Débarcadère
13;La Cantina;;;44.660027;-1.1532485;Restaurant;Pizzeria;55 boulevard de la Plage ;33120;ARCACHON;+33 5 56 66 59 33;www.lacantinaarcachon.fr;;;;55 boulevard de la Plage;
14;La Pizzéria;;;44.66189;-1.1712405;Restaurant;Pizzeria;19 rue Jehenne ;33120;ARCACHON;+33 5 56 83 20 46;;;;;19 rue Jehenne;
15;Le Bassano;;;44.657246;-1.1486734;Restaurant;Pizzeria;18 boulevard de la Plage ;33120;ARCACHON;+33 5 56 54 89 52;;;;;18 boulevard de la Plage;
16;L'Italien;;;44.648357;-1.190619;Restaurant;Pizzeria;288  boulevard de la Côte d'Argent;33120;ARCACHON;+33 5 56 54 01 14;;;;;288; boulevard de la Côte d'Argent
17;Pizzéria Cap Péreire;;;44.65832;-1.1933358;Restaurant;Pizzeria;1  avenue du Parc Pereire;33120;ARCACHON;+33 5 56 83 24 01;www.restaurantcappereire.com;;;;1; avenue du Parc Pereire
18;Stekam;;;44.661797;-1.1724746;Restaurant;Pizzeria;13 Rue du Maréchal de Lattre de Tassigny ;33120;ARCACHON;+33 5 56 83 24 24;;;;;13 Rue du Maréchal de Lattre de Tassigny;
19;Le Pirate;;;44.663116;-1.1697993;Restaurant;PizzeriaBrasserie;12 boulevard Marcel Gounouilhou ;33120;ARCACHON;+33 5 56 83 08 58;www.lepiratearcachon.com;;;;12 boulevard Marcel Gounouilhou;
20;ARCCA;;;44.66038;-1.172571;Restaurant;Restauration à  thème;39  rue Maréchal de Lattre de Tassigny;33120;ARCACHON;+33 5 57 52 00 42;;;;;39; rue Maréchal de Lattre de Tassigny
21;Palais d'Asie;;;44.66006;-1.172626;Restaurant;Restauration à  thème;43 bis  rue Mal de Lattre de Tassigny;33120;ARCACHON;+33 5 56 83 84 79;;;;;43 bis; rue Mal de Lattre de Tassigny
22;Phénix d'Or;;;44.66134;-1.1675295;Restaurant;Restauration à  thème;30  avenue Lamartine;33120;ARCACHON;+33 5 57 52 25 49;;;;;30; avenue Lamartine
23;Al Mounia;;;44.660698;-1.1654523;Restaurant;Restauration à  thème;43  cours Hericart de Thury;33120;ARCACHON;+33 5 56 83 76 03;www.almounia-arcachon.com;;;;43; cours Hericart de Thury
24;Le Jardin;;;44.64134;-1.20037;Restaurant;Restauration à  thème;23 rue Notre Dame des Passes Le Moulleau;33120;ARCACHON;+33 6 82 44 14 55;www.restaurantlejardin.com;;;;23 rue Notre Dame des Passes;Le Moulleau
25;L'Aurès;;;44.657017;-1.1478593;Restaurant;Restauration à  thème;5  rue du port;33120;ARCACHON;+33 5 56 83 97 16;http://arcachon.lamaisondutouriste.com/restaurant-aures/index.html;;;;5; rue du port
26;L'Atlantide;;;44.656277;-1.1472498;Restaurant;Restauration à  thème;52 boulevard Mestrézat ;33120;ARCACHON;+33 5 56 83 03 36;;;;;52 boulevard Mestrézat;
27;Au pique assiette;;;44.660213;-1.1542583;Restaurant;Restauration à  thème;84 bis boulevard de la Plage ;33120;ARCACHON;+33 5 56 83 78 33;www.aupiqueassiette.com;;;;84 bis boulevard de la Plage;
28;Le Beacher Restaurant;;;44.65832;-1.1933358;Restaurant;Restauration à  thèmeCuisine traditionnelle;1  avenue du Parc Péreire;33120;ARCACHON;+33 5 56 83 24 01;www.restaurantcappereire.com;;;;1; avenue du Parc Péreire
29;Les Tropiques;;;44.663116;-1.1697993;Restaurant;Restauration rapide;12  boulevard Marcel Gounouilhou;33120;ARCACHON;+33 5 56 83 20 83;;;;;12; boulevard Marcel Gounouilhou
30;Sandwichs et Companini;;;44.663116;-1.1697993;Restaurant;Restauration rapide;8  boulevard Marcel Gounouilhou;33120;ARCACHON;+33 5 56 83 34 25;;;;;8; boulevard Marcel Gounouilhou
31;Tutti Frutti;;;44.66254;-1.1671766;Restaurant;Restauration rapide;230  boulevard de la Plage;33120;ARCACHON;+33 5 56 83 50 38;;;;;230; boulevard de la Plage
32;Brasserie La Marina;;;44.663223;-1.1683194;Restaurant;Restauration rapide;24  boulevard Veyrier Montagnères;33120;ARCACHON;+33 5 56 83 26 54;;;;;24; boulevard Veyrier Montagnères
33;El Bocadillo;;;44.662758;-1.1638831;Restaurant;Restauration rapide;161  boulevard de la plage;33120;ARCACHON;+33 5 56 83 66 34;;;;;161; boulevard de la plage
34;El Bocadillo;;;44.661446;-1.1725291;Restaurant;Restauration rapide;19 avenue du Maréchal de Lattre de Tassi ;33120;ARCACHON;+33 5 40 70 27 07;;;;;19 avenue du Maréchal de Lattre de Tassi;
35;La Petite Fraise;;;44.66266;-1.1645753;Restaurant;Restauration rapide;163  boulevard de la plage;33120;ARCACHON;+33 5 56 83 23 38;;;;;163; boulevard de la plage
36;Le Papajo;;;44.64127;-1.201973;Restaurant;Restauration rapide;253  boulevard de la Côte d'Argent;33120;ARCACHON;+33 5 56 66 41 95;;;;;253; boulevard de la Côte d'Argent
37;Chez Charlot;;;44.662548;-1.1658277;Restaurant;Restauration rapide;212  boulevard de la plage;33120;ARCACHON;+33 5 56 54 85 55;;;;;212; boulevard de la plage
38;Majlis;;;44.662613;-1.1710131;Restaurant;Restauration rapide;211  boulevard de la Plage;33120;ARCACHON;+33 5 56 54 51 64;;;;;211; boulevard de la Plage
39;Le Saint Eloi;;;44.758133;-1.1332011;Hôtel restaurant;Cuisine traditionnelle;11 boulevard de l'Aérium ;33740;ARES;+33 5 56 60 20 46;www.le-saint-eloi.com/;;;;11 boulevard de l'Aérium;
40;TanyaÂ¿s Tearooms;;;44.766273;-1.139574;Restaurant;BrasserieRestauration à  thème;3 rue Paul Wallerstein ;33740;ARES;+33 5 56 03 25 21;http://tanyas.fr/;;;;3 rue Paul Wallerstein;
41;Sucré-salé;;;44.767662;-1.1394801;Restaurant;Crèperie;20 place de l'Eglise ;33740;ARES;+33 5 56 60 23 97;;;;;20 place de l'Eglise;
42;Le Pitey;;;44.760326;-1.1254549;Restaurant;Cuisine traditionnelle;79 avenue de la Libération ;33740;ARES;+33 5 56 82 16 80;www.lepitey.com/;;;;79 avenue de la Libération;
43;L'Olivier;;;44.76138;-1.1385065;Restaurant;Cuisine traditionnelle;30 rue du 14 Juillet ;33740;ARES;+33 5 56 60 00 97;www.bassindarcachon.com/pro/olivier/;;Famille Plus;;30 rue du 14 Juillet;
44;Chez Alcide;;;44.761356;-1.1416581;Restaurant;Cuisine traditionnelle;1 rue du Commandant Herminier ;33740;ARES;+33 5 56 60 15 09;;;;;1 rue du Commandant Herminier;
45;Duo Gourmand;;;44.764698;-1.1412692;Restaurant;Cuisine traditionnelle;27 boulevard de la Plage ;33740;ARES;+33 5 57 17 23 91;;;;;27 boulevard de la Plage;
46;Chez Pépé;;;44.765923;-1.1500561;Restaurant;Cuisine traditionnelle;Port Ostréicole Cabane 38;33740;ARES;+33 5 57 70 95 68;;;;;Port Ostréicole;Cabane 38
47;Le Piballey;;;44.765903;-1.1499595;Restaurant;Cuisine traditionnelle;port ostreicole d'Arès Cabane 32-33;33740;ARES;+33 5 57 70 08 46;;;;;port ostreicole d'Arès;Cabane 32-33
48;L'Incontournable;;;44.761765;-1.1289551;Restaurant;Cuisine traditionnelleGrillPizzeria;4 rue des Tourterelles ;33740;ARES;+33 5 56 60 27 09;;;Maître Restaurateur;;4 rue des Tourterelles;
49;L'Agora;;;44.767094;-1.1404135;Restaurant;Cuisine traditionnellePizzeria;1 avenue de la Plage ;33740;ARES;+33 5 56 60 02 07;;;;;1 avenue de la Plage;
50;Le San Marco;;;44.765064;-1.1365056;Restaurant;Cuisine traditionnellePizzeria;26 avenue de la Libération ;33740;ARES;+33 5 56 60 05 63;;;Famille Plus;;26 avenue de la Libération;
51;Lou Tchapeou;;;44.777023;-1.11979;Restaurant;Cuisine traditionnelleRestauration à  thème;Zone d'activités ;33740;ARES;+33 5 57 70 80 02;;;;;Zone d'activités;
52;Astropizza;;;44.767517;-1.1393594;Restaurant;Pizzeria;12  place de l'Eglise;33740;ARES;+33 5 56 26 80 97;www.astropizza.net;;;;12; place de l'Eglise
53;Le Dragon Phenix;;;44.763813;-1.1410224;Restaurant;Restauration à  thème;8 rue du 14 Juillet ;33740;ARES;+33 5 56 60 38 02;;;;;8 rue du 14 Juillet;
54;Sushi Bay;;;44.762814;-1.1323763;Restaurant;Restauration à  thème;47 bis  avenue de la Libération;33740;ARES;+33 5 56 82 98 56;www.sushibay.fr;;;;47 bis; avenue de la Libération
55;Arenal;;;44.776306;-1.1420277;Restaurant;Restauration à  thème;65 bis rue du Général de Gaulle ;33740;ARES;+33 5 56 82 90 80;;;;;65 bis rue du Général de Gaulle;
56;Le Makila;;;44.77294;-1.1413657;Restaurant;Restauration à  thème;53 rue du Général de Gaulle ;33740;ARES;+33 5 56 60 73 30;;;Famille Plus;;53 rue du Général de Gaulle;
57;Mc Donald's;;;44.77117;-1.1128163;Restaurant;Restauration rapide;lieu-dit La Montagne ;33740;ARES;+33 5 57 17 00 10;;;;;lieu-dit La Montagne;
58;Les Terrasses de la Plage;;;44.76322;-1.1417198;Restaurant;Restauration rapide;10 avenue de la Plage ;33740;ARES;+33 6 73 60 82 58;www.bar-glacier-tapas-33.fr/;;;;10 avenue de la Plage;
59;Le Wy;;;44.98397;-0.7444524;Restaurant;Bistrot / bar à  vinBrasserie;La Winery rond-point des Vendangeurs;33460;ARSAC;+33 5 56 59 04 91;www.winery.fr;;;;La Winery;rond-point des Vendangeurs
60;Karousel;;;44.884567;-0.284611;Hôtel restaurant;Cuisine traditionnelle;Le Port du Noyer ;33500;ARVEYRES;+33 5 57 51 41 41;www.kyriad-libourne-saint-emilion.fr;;Qualité Tourisme;;Le Port du Noyer;
61;La Gravette;;;44.677685;-1.022458;Restaurant;Brasserie;Le port ;33980;AUDENGE;+33 5 57 17 55 49;;;;;Le port;
62;Les Allées;;;44.682537;-1.0144758;Restaurant;Brasserie;15 allées Ernest de Boissière ;33980;AUDENGE;+33 5 57 70 13 73;;;;;15 allées Ernest de Boissière;
63;Chez Geneviève - Restaurant du Port;;;44.67783;-1.0216641;Restaurant;Cuisine traditionnelle;62  port d'Audenge;33980;AUDENGE;+33 5 56 26 81 05;;;;;62; port d'Audenge
64;La Pizza Royale;;;44.68205;-1.0115182;Restaurant;Pizzeria;2 bis  rue de Bordeaux;33980;AUDENGE;+33 5 56 26 96 43;;;;;2 bis; rue de Bordeaux
65;Tomy's pizza;;;44.68396;-1.015923;Restaurant;Pizzeria;14  allée de Boissière;33980;AUDENGE;+33 6 78 36 42 13;;;;;14; allée de Boissière
66;Al Fantasia;;;44.694588;-0.984435;Restaurant;Restauration à  thème;Zone d'Activités Artisanale Nouvelle 11 rue Hapchot;33980;AUDENGE;+33 5 57 17 31 40;;;;;Zone d'Activités Artisanale Nouvelle;11 rue Hapchot
67;L'Absolu;;;44.49367;-0.142909;Restaurant;Cuisine traditionnelle;2  rue Partarrieu;33124;AUROS;+33 5 56 65 29 23;www.restaurant-absolu.com;;Maître Restaurateur;;2; rue Partarrieu
68;Le Baron Gourmand;;;44.821056;-0.310707;Restaurant;Cuisine traditionnelle;2 route de Montesquieu ;33750;BARON;+33 5 57 24 26 40;www.barongourmand.com;;;Handicap auditifHandicap mental;2 route de Montesquieu;
69;Domaine de Fompeyre;;;44.417965;-0.215435;Hôtel restaurant;Cuisine traditionnelle;route de Mont de Marsan ;33430;BAZAS;+33 5 56 25 98 00;www.cerise-hotels-resorts.com;;;;route de Mont de Marsan;
70;Le Bistrot Saint Jean;;;44.431503;-0.2120125;Restaurant;BrasserieCuisine traditionnelle;42  place de la Cathédrale;33430;BAZAS;+33 5 56 25 18 53;;;;;42; place de la Cathédrale
71;Café d'Oc Créperie;;;44.43204;-0.2110362;Restaurant;Crèperie;13  rue Bragous;33430;BAZAS;+33 5 56 25 96 08;www.cafedoc.com;;;;13; rue Bragous
72;Crèperie La Jolie Farandole;;;44.431473;-0.2124953;Restaurant;CrèperieRestauration rapide;21 rue Fondespan ;33430;BAZAS;+33 5 56 65 17 84;;;;;21 rue Fondespan;
73;Les Remparts;;;44.431206;-0.2117228;Restaurant;Cuisine traditionnelle;49  place de la Cathédrale;33430;BAZAS;+33 5 56 25 95 24;www.restaurant-les-remparts.com;;;;49; place de la Cathédrale
74;L'Indigo;;;44.43151;-0.2130854;Restaurant;Cuisine traditionnelle;25 rue Fondespan ;33430;BAZAS;+33 5 56 25 25 52;;;;;25 rue Fondespan;
75;Noosa Café;;;44.431812;-0.2115914;Restaurant;Restauration rapide;31 place de la Cathédrale ;33430;BAZAS;+33 5 56 25 45 78;;;;;31 place de la Cathédrale;
76;La Passerelle;;;44.700916;-0.4537721;Hôtel restaurant;Cuisine traditionnelle;14  rue de la Passerelle;33640;BEAUTIRAN;+33 5 57 54 84 13;;;;;14; rue de la Passerelle
77;Château de la Tour;;;44.638805;-0.3221547;Hôtel restaurant;Cuisine traditionnelle;2  avenue de la Libération;33410;BEGUEY;+33 5 56 76 92 00;www.hotel-restaurant-chateaudelatour.com;;;;2; avenue de la Libération
78;La Paillote;;;45.118206;-0.5916738;Restaurant;Cuisine traditionnelle;4 Loumède ;33390;BERSON;+33 6 15 27 94 44;;;;;4 Loumède;
79;Restaurant du Golf de Teynac;;;44.858913;-0.365605;Restaurant;Cuisine traditionnelle;Domaine de Teynac ;33750;BEYCHAC-ET-CAILLAU;+33 5 56 21 76 01;www.golf-teynac.com;;;;Domaine de Teynac;
80;Le Terminus;;;44.6374;-0.9668962;Hôtel restaurant;Brasserie;8  rue de la Gare;33380;BIGANOS;+33 5 56 82 11 36;;;;;8; rue de la Gare
81;Hôtel-restaurant de France;;;44.64416;-0.9786361;Hôtel restaurant;Cuisine traditionnelle;99  avenue de la Libération;33380;BIGANOS;+33 5 56 82 61 08;;;;;99; avenue de la Libération
82;Fournil Brasserie Biganos;;;44.63382;-0.959115;Restaurant;Brasserie;Parc commercial Portes du Delta ;33380;BIGANOS;+33 5 56 60 70 70;;;;;Parc commercial Portes du Delta;
83;Au Croissant Doré;;;44.64002;-0.9541015;Restaurant;Brasserie;24 rue Gutenberg Centre commercial Auchan;33380;BIGANOS;+33 5 56 26 74 63;www.aucroissantdorebiganos.e-monsite.com;;;;24 rue Gutenberg;Centre commercial Auchan
84;Flunch;;;44.642113;-0.976619;Restaurant;Cafétéria; rue des Fonderies Centre commercial Auchan;33380;BIGANOS;+33 5 56 26 29 98;www.flunch.fr;;;; rue des Fonderies;Centre commercial Auchan
85;L'Essentiel;;;44.63565;-0.9738564;Restaurant;Cuisine traditionnelle;49  avenue de la Côte d'Argent;33380;BIGANOS;+33 5 56 82 62 81;;;;;49; avenue de la Côte d'Argent
86;Ch'ti Boà¯en;;;44.637356;-0.962076;Restaurant;Cuisine traditionnelle;rue des Fonderies ;33380;BIGANOS;+33 5 57 70 63 96;;;;;rue des Fonderies;
87;L'Auberge de Biganos;;;44.6371;-0.9671831;Restaurant;Cuisine traditionnelle;18  route des Lacs;33380;BIGANOS;+33 5 56 82 78 79;;;;;18; route des Lacs
88;Le Millésime;;;44.633514;-0.9773647;Restaurant;Cuisine traditionnelle;30  avenue de la Côte d'Argent;33380;BIGANOS;+33 5 56 82 94 84;;;;;30; avenue de la Côte d'Argent
89;La Pizza Catalane;;;44.642113;-0.976619;Restaurant;Pizzeria;allée Maurice Lafon ;33380;BIGANOS;+33 5 56 26 36 59;;;;;allée Maurice Lafon;
90;Le Syracuse;;;44.637325;-0.9673099;Restaurant;Pizzeria;1  rue de la Gare;33380;BIGANOS;+33 5 57 70 63 84;;;;;1; rue de la Gare
91;Pizz Bar;;;44.637882;-0.9683456;Restaurant;Pizzeria;2 avenue de la Libération ;33380;BIGANOS;+33 5 57 70 10 70;;;;;2 avenue de la Libération;
92;Pizza Boà¯enne;;;44.63878;-0.9789839;Restaurant;Pizzeria;4  avenue des Boà¯ens;33380;BIGANOS;+33 5 56 26 79 04;;;;;4; avenue des Boà¯ens
93;Asie gourmande;;;44.634186;-0.9600806;Restaurant;Restauration à  thème;rue Fonderies ;33380;BIGANOS;+33 5 57 70 99 41;;;;;rue Fonderies;
94;La pause de Marie;;;44.63362;-0.9792423;Restaurant;Restauration à  thème;53 avenue des Boà¯ens ;33380;BIGANOS;+33 5 56 82 93 40;;;;;53 avenue des Boà¯ens;
95;Au ke'boà¯ens;;;44.6405;-0.9734579;Restaurant;Restauration rapide;44 ter avenue de la Libération ;33380;BIGANOS;+33 5 57 17 67 03;;;;;44 ter avenue de la Libération;
96;Au P'tit en k;;;44.637978;-0.9684506;Restaurant;Restauration rapide;4  avenue de la Libération;33380;BIGANOS;+33 7 86 51 79 38;;;;;4; avenue de la Libération
97;Chaud & Froid;;;44.645267;-0.9837711;Restaurant;Restauration rapide;5  rue du Port;33380;BIGANOS;+33 6 82 76 58 88;;;;;5; rue du Port
98;Mc Donald's;;;44.63699;-0.9555371;Restaurant;Restauration rapide;3  rue Gustave Eiffel;33380;BIGANOS;+33 5 57 17 09 08;www.mcdonalds.fr;;;;3; rue Gustave Eiffel
99;L'Hostellerie des Criquets;;;44.915577;-0.6269004;Hôtel restaurant;Cuisine traditionnelleBistrot / bar à  vin;130  avenue du 11 novembre;33290;BLANQUEFORT;+33 5 56 35 09 24;www.lescriquets.com;;;;130; avenue du 11 novembre
100;A la belle époque;;;44.749516;-0.0752689;Restaurant;Cuisine traditionnelle;1  place de la République;33540;BLASIMON;+33 5 56 61 44 02;;;;;1; place de la République
101;Auberge du Porche;;;45.12328;-0.662527;Hôtel restaurant;Cuisine traditionnelle;5  rue Ernest Régnier;33390;BLAYE;+33 5 57 42 22 69;www.auberge-du-porche.com;;Tables et Auberges de FranceMaître Restaurateur;;5; rue Ernest Régnier
102;La Citadelle;;;45.126842;-0.662941;Hôtel restaurant;Cuisine traditionnelle;place d'Armes ;33390;BLAYE;+33 5 57 42 17 10;www.hotellacitadelle.com;3 cheminées3 cocottes;;;place d'Armes;
103;Le Bastion;;;45.12818;-0.6654667;Restaurant;Crèperie;Citadelle de Vauban ;33390;BLAYE;+33 5 57 42 14 50;www.lebastion.fr;;;;Citadelle de Vauban;
104;L'Avant Scène;;;45.128063;-0.6667947;Restaurant;Cuisine traditionnelle;place d'armes La citadelle;33390;BLAYE;+33 5 57 42 17 10;www.hotellacitadelle.com;;;;place d'armes;La citadelle
105;Le Gavroche;;;45.125824;-0.6629861;Restaurant;Cuisine traditionnelle;14 rue neuve ;33390;BLAYE;+33 5 57 58 21 03;;;;;14 rue neuve;
106;Le Petit Port;;;45.12623;-0.6638574;Restaurant;Cuisine traditionnelle;3  cours du Port;33390;BLAYE;+33 5 57 42 12 52;;;;;3; cours du Port
107;Le Prémayac;;;45.125237;-0.6638252;Restaurant;Cuisine traditionnelle;25  rue Prémayac;33390;BLAYE;+33 5 57 42 19 57;www.restaurant-lepremayac.com;;;;25; rue Prémayac
108;Le P'tit Canon;;;45.127895;-0.6668186;Restaurant;Cuisine traditionnelleBistrot / bar à  vinBrasserie;place d'Armes Citadelle de Vauban;33390;BLAYE;+33 9 51 19 11 85;;;;;place d'Armes;Citadelle de Vauban
109;Pizzeria Trattoria Gennaro;;;45.13843;-0.6543302;Restaurant;Pizzeria;111 rue de l'Hôpital ;33390;BLAYE;+33 5 57 42 11 90;;;;;111 rue de l'Hôpital;
110;La Casa;;;45.125835;-0.6631708;Restaurant;Pizzeria;10  rue Neuve;33390;BLAYE;+33 5 57 42 81 39;;;;;10; rue Neuve
111;Dragon Bleu;;;45.130104;-0.6610679;Restaurant;Restauration à  thème;49 rue Saint-Romain ;33390;BLAYE;+33 5 57 32 74 80;;;;;49 rue Saint-Romain;
112;Le Ki-Lo-Ré-Di;;;45.128304;-0.6657671;Restaurant;Restauration rapide;10 avenue du 144e RI La citadelle;33390;BLAYE;+33 6 86 88 40 79;;;;;10 avenue du 144e RI;La citadelle
113;Chais Saint Louis;;;44.858856;-0.5695132;Hôtel restaurant;BrasserieCuisine traditionnelle;Hôtel Mercure Château Chartrons  81 cours Saint Louis;33000;BORDEAUX;+33 5 56 43 15 00;www.hotel-chateau-chartrons-bordeaux.fr/fr/restaurant_bar.html;;;;Hôtel Mercure Château Chartrons; 81 cours Saint Louis
114;Les Quat' Saisons;;;44.886944;-0.5453571;Hôtel restaurant;BrasserieCuisine traditionnelle;24  rue Edmond Besse;33000;BORDEAUX;+33 5 56 50 71 63;www.restaurant-lesquatsaisons.fr;;;;24; rue Edmond Besse
115;Le Pressoir d'Argent;;;44.842487;-0.5746039;Hôtel restaurant;Cuisine traditionnelle;Grand Hotel de Bordeaux & Spa  02 place de la Comédie;33000;BORDEAUX;+33 5 57 30 43 04;www.pressoir-argent.com;;;Handicap auditifHandicap mentalHandicap moteurHandicap visuel;Grand Hotel de Bordeaux & Spa; 02 place de la Comédie
116;La Table de Burdigala;;;44.839676;-0.5868545;Hôtel restaurant;Cuisine traditionnelle;Hôtel le Burdigala  115 rue Georges Bonnac;33000;BORDEAUX;+33 5 56 90 16 16;www.burdigala.com;;Maître Restaurateur;;Hôtel le Burdigala; 115 rue Georges Bonnac
117;Hepburn Restaurant;;;44.829727;-0.5593796;Hôtel restaurant;Cuisine traditionnelle;Hôtel Mercure Bordeaux Gare 28-30 rue de Tauzia;33000;BORDEAUX;+33 5 56 92 21 21;www.mercure.com;;;;Hôtel Mercure Bordeaux Gare;28-30 rue de Tauzia
118;L'Aquitania;;;44.88897;-0.5673628;Hôtel restaurant;Cuisine traditionnelle;Hôtel Pullman Bordeaux Aquitania 1 avenue Jean-Gabriel Domergue;33000;BORDEAUX;+33 5 56 69 65 11;www.pullmanhotels.com;;;;Hôtel Pullman Bordeaux Aquitania;1 avenue Jean-Gabriel Domergue
119;Le Bar de l'Echanson;;;44.889763;-0.5644598;Hôtel restaurant;Cuisine traditionnelle;Hôtel Mercure Bordeaux-Lac rue du Grand Barail;33000;BORDEAUX;+33 5 56 43 36 72;www.mercure.com;;;;Hôtel Mercure Bordeaux-Lac;rue du Grand Barail
120;Le Gallopin;;;44.833393;-0.5935479;Hôtel restaurant;Cuisine traditionnelle;Hôtel All Seasons Bordeaux Mériadeck avenue du Général de Larminat;33000;BORDEAUX;+33 5 56 24 01 39;;;;;Hôtel All Seasons Bordeaux Mériadeck;avenue du Général de Larminat
121;Le Novotel Café Bordeaux Lac;;;44.88923;-0.5670891;Hôtel restaurant;Cuisine traditionnelle;avenue Jean-Gabriel Domergue ;33300;BORDEAUX;+33 5 56 43 65 00;www.novotel.com;;;;avenue Jean-Gabriel Domergue;
122;Le Novotel Café Mériadeck;;;44.88897;-0.5673628;Hôtel restaurant;Cuisine traditionnelle;Novotel Bordeaux Centre 45 cours du Marechal Juin;33000;BORDEAUX;+33 5 56 51 46 46;www.novotel.com;;;;Novotel Bordeaux Centre;45 cours du Marechal Juin
123;Olicia;;;44.82989;-0.6073336;Hôtel restaurant;Cuisine traditionnelle;Hôtel Alton  107 rue de la Pelouse de Douet;33000;BORDEAUX;+33 5 56 99 55 55;www.hotel-alton.com;;;;Hôtel Alton; 107 rue de la Pelouse de Douet
124;Bateau d'Emile;;;45.014435;-0.095812;Restaurant;Cuisine traditionnelle;Route Nationale 89 Penot;33230;ABZAC;+33 5 57 69 62 67;www.lebateaudemile.fr;;;;Route Nationale 89;Penot
125;Le Ti Pont;;;44.470238;-0.02142;Restaurant;Cuisine traditionnellePizzeria;31  Aillas Le Grand;33124;AILLAS;+33 5 56 65 30 25;;;;;31; Aillas Le Grand
126;L'Espace Tillac;;;44.92714;-0.4903658;Restaurant;Cuisine traditionnelleRestauration à  thème;29  rue de la Mouline;33440;AMBARES-ET-LAGRAVE;+33 5 56 06 47 71;www.restaurant-espace-tillac.com;;;;29; rue de la Mouline
127;L'Etoile;;;44.73022;-1.0819162;Hôtel restaurant;Cuisine traditionnelle;13  place de l'Etoile;33510;ANDERNOS-LES-BAINS;+33 5 56 82 00 29;;;;;13; place de l'Etoile
128;Auberge Le Chène;;;44.73457;-1.0838526;Hôtel restaurant;Cuisine traditionnelle;54  boulevard de la République;33510;ANDERNOS-LES-BAINS;+33 5 56 82 05 10;;;;;54; boulevard de la République
129;Le Café de la Plage;;;44.739418;-1.1006927;Restaurant;Bistrot / bar à  vinBrasserieCuisine traditionnelle;9  avenue du Général de Gaulle;33510;ANDERNOS-LES-BAINS;+33 5 56 26 89 97;cafeplageandernos.fr;;;;9; avenue du Général de Gaulle
130;Le Florentin;;;44.74125;-1.0985326;Restaurant;BrasserieCuisine traditionnelle;16  avenue Pasteur;33510;ANDERNOS-LES-BAINS;+33 5 56 82 55 63;;;;;16; avenue Pasteur
131;Les Temps Modernes;;;44.760998;-1.0703086;Restaurant;BrasserieCuisine traditionnelleGrillPizzeria;2  rue Panhard et Levassor;33510;ANDERNOS-LES-BAINS;+33 5 57 17 42 68;www.lestempsmodernes-restaurant.fr;;;;2; rue Panhard et Levassor
132;L'Airial;;;44.74088;-1.0998914;Restaurant;BrasseriePizzeriaCuisine traditionnelleGrill;15 avenue du Général de Gaulle ;33510;ANDERNOS-LES-BAINS;+33 5 56 26 00 16;;;;;15 avenue du Général de Gaulle;
133;La Petite Table;;;44.74421;-1.106517;Restaurant;Cuisine traditionnelle;15 boulevard de la Plage ;33510;ANDERNOS-LES-BAINS;+33 5 56 82 46 88;www.lapetitetable.fr;;;;15 boulevard de la Plage;
134;A la P'tite Assiette;;;44.74015;-1.101036;Restaurant;Cuisine traditionnelle;Résidence du Vieux Marché 21 rue Pasteur;33510;ANDERNOS-LES-BAINS;+33 5 56 82 59 90;www.laptiteassiette-andernos.com;;;;Résidence du Vieux Marché;21 rue Pasteur
135;Les Tamaris;;;44.740013;-1.100744;Restaurant;Cuisine traditionnelle;2 place Louis David ;33510;ANDERNOS-LES-BAINS;+33 5 56 26 74 77;www.restaurant-tamaris.com;;Maître Restaurateur;;2 place Louis David;
136;Chez Dubarry;;;44.732224;-1.0915946;Restaurant;Cuisine traditionnelle;Promenade de la piscine ;33510;ANDERNOS-LES-BAINS;+33 5 56 82 32 24;;;;;Promenade de la piscine;
137;Chez Eliette;;;44.743443;-1.1101341;Restaurant;Cuisine traditionnelle;Port Ostréicole 19 avenue du Commandant Allègre;33510;ANDERNOS-LES-BAINS;+33 5 56 82 16 77;www.chez-eliette.com;;Maître Restaurateur;;Port Ostréicole;19 avenue du Commandant Allègre
138;La Parqueuse;;;44.744354;-1.1104774;Restaurant;Cuisine traditionnelle;Port Ostréicole 13 avenue du Commandant David Allègre;33510;ANDERNOS-LES-BAINS;+33 5 56 82 08 27;;;;;Port Ostréicole;13 avenue du Commandant David Allègre
139;L'Esquirey;;;44.743443;-1.1108207;Restaurant;Cuisine traditionnelle;port ostréicole 9 avenue du Commandant Allègre;33510;ANDERNOS-LES-BAINS;+33 5 56 82 22 15;;;;;port ostréicole;9 avenue du Commandant Allègre
140;Mon Désir;;;44.73038;-1.0823595;Restaurant;Cuisine traditionnelle;7 place de l'Etoile ;33510;ANDERNOS-LES-BAINS;+33 5 57 17 42 99;;;;;7 place de l'Etoile;
141;La Caouenne;;;44.74015;-1.1007828;Restaurant;Cuisine traditionnelleBrasserie;place Louis David ;33510;ANDERNOS-LES-BAINS;+33 5 56 26 04 92;;;;;place Louis David;
142;Le Cribus;;;44.746918;-1.1048769;Restaurant;Cuisine traditionnelleRestauration à  thème;288  boulevard de la République;33510;ANDERNOS-LES-BAINS;+33 5 56 82 04 23;www.restaurant-le-cribus.com;;;;288; boulevard de la République
143;O plaisirs !;;;44.764347;-1.0648155;Restaurant;Cuisine traditionnelleRestauration rapideBrasserie;Casino Le Miami route de Bordeaux;33510;ANDERNOS-LES-BAINS;+33 5 56 82 00 65;www.casinoandernos.com;;;;Casino Le Miami;route de Bordeaux
144;Pizza 45;;;44.741367;-1.0991477;Restaurant;PizzeriaCuisine traditionnelle;45  avenue du Général de Gaulle;33510;ANDERNOS-LES-BAINS;+33 5 56 82 17 49;www.pizzeria45.com;;;;45; avenue du Général de Gaulle
145;Chez Marie Paule;;;45.211834;-0.636968;Restaurant;Cuisine traditionnelle;3 route du Petit Guilhem ;33390;ANGLADE;+33 5 57 64 41 84;;;;;3 route du Petit Guilhem;
146;Le Passage;;;45.22286;-0.6542015;Restaurant;Cuisine traditionnelle;route des Marais 1 lieu-dit Romefort;33390;ANGLADE;+33 5 57 68 28 77;;;;;route des Marais;1 lieu-dit Romefort
147;Ville d'Hiver;;;44.65678;-1.1658036;Hôtel restaurant;Bistrot / bar à  vinBrasserie;20  avenue Victor Hugo;33120;ARCACHON;+33 5 56 66 10 36;www.hotelvilledhiver.com;;;;20; avenue Victor Hugo
148;Côté d'Arguin;;;44.65099;-1.191269;Hôtel restaurant;Cuisine traditionnelle;9  avenue du Parc;33120;ARCACHON;+33 5 57 72 06 72;;;;;9; avenue du Parc
149;Le Bordeaux;;;44.6597;-1.1656459;Hôtel restaurant;Cuisine traditionnelle;39 boulevard du Général Leclerc ;33120;ARCACHON;+33 5 56 83 80 30;;;;;39 boulevard du Général Leclerc;
150;L'Ostrei;;;44.657925;-1.1540094;Hôtel restaurant;Cuisine traditionnelle;22 avenue de la République ;33120;ARCACHON;+33 5 56 54 05 32;www.ostrei.fr;;;;22 avenue de la République;
151;Art Mot Nid 100 Thès;;;44.656155;-1.1761593;Restaurant;Bistrot / bar à  vin;3 place Fleming Ville d'Hiver;33120;ARCACHON;+33 5 57 52 27 43;;;;;3 place Fleming;Ville d'Hiver
152;Le Café de la Gare;;;44.659508;-1.164695;Restaurant;Bistrot / bar à  vin;35 boulevard du Général Leclerc ;33120;ARCACHON;+33 5 56 83 53 95;;;;;35 boulevard du Général Leclerc;
153;Le Chiquito;;;44.66147;-1.1568969;Restaurant;Bistrot / bar à  vin;124 boulevard de la Plage ;33120;ARCACHON;+33 5 56 83 16 29;;;;;124 boulevard de la Plage;
154;Le French Coffee Shop;;;44.66248;-1.1673498;Restaurant;Bistrot / bar à  vin;232 boulevard de la Plage ;33120;ARCACHON;+33 5 56 83 73 30;www.frenchcoffeeshop.com;;;;232 boulevard de la Plage;
155;Le Piment Noir;;;44.6615;-1.174314;Restaurant;Bistrot / bar à  vin;12  bis rue Mal de Lattre de Tassigny;33120;ARCACHON;+33 5 56 83 41 66;www.lepimentnoir.com;;;;12; bis rue Mal de Lattre de Tassigny
156;Le Troquet;;;44.662586;-1.1669615;Restaurant;Bistrot / bar à  vin;173 boulevard de la Plage ;33120;ARCACHON;+33 5 56 22 51 35;;;;;173 boulevard de la Plage;
157;Le Bistrot du Boulevard;;;44.66254;-1.1671766;Restaurant;Bistrot / bar à  vinBrasseriePizzeria;230  boulevard de la Plage;33120;ARCACHON;+33 5 56 83 45 67;;;;;230; boulevard de la Plage
158;Brasserie Le Commerce;;;44.66194;-1.1686074;Restaurant;Brasserie;9  avenue Gambetta;33120;ARCACHON;+33 5 56 83 05 17;;;;;9; avenue Gambetta
159;Brasserie Le Mauresque;;;44.660526;-1.17267;Restaurant;Brasserie;35 avenue de Lattre de Tassigny ;33120;ARCACHON;+33 5 56 83 39 09;;;;;35 avenue de Lattre de Tassigny;
160;Le Corossol;;;44.65193;-1.1865109;Restaurant;Brasserie;105 boulevard de la Côte d'Argent ;33120;ARCACHON;+33 5 56 66 76 93;;;;;105 boulevard de la Côte d'Argent;
161;Le Repetto;;;44.66247;-1.1685619;Restaurant;Brasserie;2  avenue Gambetta;33120;ARCACHON;+33 5 56 83 31 45;;;;;2; avenue Gambetta
162;L'Ilot;;;44.662;-1.1684207;Restaurant;Brasserie;8  avenue Gambetta;33120;ARCACHON;+33 5 56 83 48 89;;;;;8; avenue Gambetta
163;Zen It Beach;;;44.65974;-1.1915016;Restaurant;Brasserie;plage Pereire ;33120;ARCACHON;+33 6 25 32 06 59;;;;;plage Pereire;
164;L'Estival;;;44.656437;-1.1471665;Restaurant;Brasserie;place de l'Aiguillon ;33120;ARCACHON;+33 5 56 83 15 18;;;;;place de l'Aiguillon;
165;Brasserie Cap Péreire;;;44.65768;-1.1936101;Restaurant;Brasserie;1  avenue du Parc Pereire;33120;ARCACHON;+33 5 56 83 24 01;www.restaurantcappereire.com;;;;1; avenue du Parc Pereire
166;Bacchus du Moulleau;;;44.641483;-1.2017511;Restaurant;Brasserie;4  avenue Notre Dame des Passes;33120;ARCACHON;+33 5 56 54 50 35;;;;;4; avenue Notre Dame des Passes
167;Le Café de la Plage;;;44.66328;-1.166554;Restaurant;BrasserieBistrot / bar à  vin;1 boulevard Veyrier Montagnères ;33120;ARCACHON;+33 5 56 22 52 94;www.cafedelaplage.com;;;;1 boulevard Veyrier Montagnères;
168;Brasserie les Marquises;;;44.661716;-1.1699903;Restaurant;BrasserieBistrot / bar à  vinCafétériaCuisine traditionnelle;rue Roger Expert Place Nouvelle 1;33120;ARCACHON;+33 5 56 83 80 06;;;;;rue Roger Expert;Place Nouvelle 1
169;La Paillotte;;;44.663116;-1.1697993;Restaurant;BrasserieCrèperieCafétériaCuisine traditionnelle;12 boulevard Marcel Gounouilhou ;33120;ARCACHON;+33 5 56 22 88 76;;;;;12 boulevard Marcel Gounouilhou;
170;Le Square Café;;;44.661945;-1.1724748;Restaurant;BrasserieCuisine traditionnelle;7  rue de Lattre de Tassigny;33120;ARCACHON;+33 5 56 83 19 25;;;;;7; rue de Lattre de Tassigny
171;Alice Mediastore Arcachon;;;44.661716;-1.1699903;Restaurant;BrasserieCuisine traditionnelle;Place Nouvelle Ville d'été;33120;ARCACHON;+33 5 57 72 04 25;www.alicemediastore.fr;;;;Place Nouvelle;Ville d'été
172;Au Bureau;;;44.66086;-1.1685654;Restaurant;BrasserieCuisine traditionnellePizzeria;25  avenue Gambetta;33120;ARCACHON;+33 5 56 83 22 21;www.au-bureau.fr;;;;25; avenue Gambetta
173;La Napolitaine;;;44.66102;-1.172463;Restaurant;BrasseriePizzeria;28  rue du Mal de Lattre de Tassigny;33120;ARCACHON;+33 5 57 52 20 50;;;;;28; rue du Mal de Lattre de Tassigny
174;La Cabane o Crèpes;;;44.656857;-1.1479796;Restaurant;Crèperie;4 boulevard de la Plage ;33120;ARCACHON;+33 5 57 52 04 43;;;;;4 boulevard de la Plage;
175;Crèperie Bretonne La Minotière;;;44.661003;-1.172572;Restaurant;Crèperie;28 rue Maréchal de Lattre de Tassigny ;33120;ARCACHON;+33 5 57 52 20 50;;;;;28 rue Maréchal de Lattre de Tassigny;
176;Crèperie d'Arcachon;;;44.66252;-1.1711957;Restaurant;Crèperie;211  boulevard de la Plage;33120;ARCACHON;+33 5 56 83 72 12;;;;;211; boulevard de la Plage
177;La Crèperie du Moulleau;;;44.641575;-1.2027021;Restaurant;Crèperie;3  avenue Notre Dame des Passes;33120;ARCACHON;+33 5 57 52 23 88;;;;;3; avenue Notre Dame des Passes
178;La Saison 2;;;44.661396;-1.172399;Restaurant;Crèperie;21 rue du Mal de Lattre de Tassigny ;33120;ARCACHON;+33 5 56 83 24 05;;;;;21 rue du Mal de Lattre de Tassigny;
179;Le Salon;;;44.660755;-1.1682927;Restaurant;Crèperie;26 avenue Gambetta ;33120;ARCACHON;+33 5 57 52 34 85;;;;;26 avenue Gambetta;
180;Aux Mille Saveurs;;;44.658962;-1.16362;Restaurant;Cuisine traditionnelle;25  boulevard du Général Leclerc;33120;ARCACHON;+33 5 56 83 40 28;www.auxmillesaveurs.fr;;Tables et Auberges de France;;25; boulevard du Général Leclerc
181;Vilaroma;;;44.663643;-1.1637658;Restaurant;Cuisine traditionnelle;17  rue du Professeur Jolyet;33120;ARCACHON;+33 5 56 83 54 54;;;;;17; rue du Professeur Jolyet
182;La Caravelle;;;44.66271;-1.1639844;Restaurant;Cuisine traditionnelle;Casino d'Arcachon 163 boulevard de la Plage;33120;ARCACHON;+33 5 56 83 41 44;www.casino-bassindarcachon.com;;;;Casino d'Arcachon;163 boulevard de la Plage
183;Le Grill;;;44.661385;-1.170215;Restaurant;Cuisine traditionnelle;3 place Franklin Roosevelt ;33120;ARCACHON;+33 5 56 83 01 20;;;;;3 place Franklin Roosevelt;
184;Le Pet du Diable;;;44.652115;-1.1474496;Restaurant;Cuisine traditionnelle;6  boulevard Mestrezat;33120;ARCACHON;+33 5 57 52 08 59;;;;;6; boulevard Mestrezat
185;Le Pote Agé;;;44.662567;-1.1745385;Restaurant;Cuisine traditionnelle;348  boulevard de la Plage;33120;ARCACHON;+33 5 56 83 64 62;;;;;348; boulevard de la Plage
186;Les Tamaris;;;44.663197;-1.1705735;Restaurant;Cuisine traditionnelle;20  Boulevard Gounouilhou;33120;ARCACHON;+33 6 28 42 61 46;tamarisarcachon.blogspot.com;;;;20; Boulevard Gounouilhou
187;L'Hacienda Café;;;44.660313;-1.1544714;Restaurant;Cuisine traditionnelle;86  boulevard de la Plage;33120;ARCACHON;+33 5 56 83 58 97;www.bassin-restaurant.com;;;;86; boulevard de la Plage
188;Restaurant du Golf 19;;;44.636604;-1.1711647;Restaurant;Cuisine traditionnelle;35 boulevard d'Arcachon ;33120;ARCACHON;+33 5 57 52 68 00;www.restaurantdugolf19.fr;;;;35 boulevard d'Arcachon;
189;La Cabane du Tchanquet;;;44.66271;-1.1638173;Restaurant;Cuisine traditionnelle;8  rue du Professeur Jolyet;33120;ARCACHON;+33 5 56 83 97 70;;;;;8; rue du Professeur Jolyet
190;Le Nioulargue Café;;;44.66324;-1.167061;Restaurant;Cuisine traditionnelle;20  boulevard Veyrier Montagnères;33120;ARCACHON;+33 5 56 83 49 43;www.nioulargue-cafe.fr;;;;20; boulevard Veyrier Montagnères
191;Le Santa Maria;;;44.66044;-1.1449704;Restaurant;Cuisine traditionnelle;quai Goslar Centre Nautique Pierre Mallet;33120;ARCACHON;+33 5 56 83 11 05;;;;;quai Goslar;Centre Nautique Pierre Mallet
192;Côté Courts;;;44.65136;-1.1887764;Restaurant;Cuisine traditionnelle;7 avenue du Parc Tennis Club d'Arcachon;33120;ARCACHON;+33 5 56 15 38 78;;;;;7 avenue du Parc;Tennis Club d'Arcachon
193;La Calypso;;;44.660236;-1.154003;Restaurant;Cuisine traditionnelle;84  boulevard de la Plage;33120;ARCACHON;+33 5 56 83 65 08;www.restaurant-la-calypso.com;;;;84; boulevard de la Plage
194;Le Bikini;;;44.64531;-1.1992679;Restaurant;Cuisine traditionnelle;18 allée des Arbousiers ;33120;ARCACHON;+33 5 56 83 91 36;;;;;18 allée des Arbousiers;
195;Cap'tain Aldo;;;44.663277;-1.167414;Restaurant;Cuisine traditionnelle;22  boulevard Veyrier Montagnères;33120;ARCACHON;+33 5 56 83 78 81;www.captainaldo.com;;;;22; boulevard Veyrier Montagnères
196;Chez Yvette;;;44.660187;-1.1677091;Restaurant;Cuisine traditionnelle;59  boulevard du Général Leclerc;33120;ARCACHON;33556830511;;;;;59; boulevard du Général Leclerc
197;La Loubine;;;44.660072;-1.1539606;Restaurant;Cuisine traditionnelle;80  boulevard de la Plage;33120;ARCACHON;+33 5 56 83 12 15;www.laloubine-arcachon.com;;;;80; boulevard de la Plage
198;Le Noroît;;;44.660393;-1.1546474;Restaurant;Cuisine traditionnelle;88  boulevard de la Plage;33120;ARCACHON;+33 5 56 83 82 41;;;;;88; boulevard de la Plage
199;Le Pavillon d'Arguin;;;44.66029;-1.1678565;Restaurant;Cuisine traditionnelle;63  boulevard du Général Leclerc;33120;ARCACHON;+33 5 56 83 46 96;www.lepavillondarguin.com;;;;63; boulevard du Général Leclerc
200;L'Ecailler Chez Diego;;;44.663692;-1.1638841;Restaurant;Cuisine traditionnelle;2  boulevard Veyrier Montagnères;33120;ARCACHON;+33 5 56 83 84 46;www.diegoplage.com;;;;2; boulevard Veyrier Montagnères
201;L'Espadon;;;44.660885;-1.1726001;Restaurant;Cuisine traditionnelle;29  rue de Lattre de Tassigny;33120;ARCACHON;+33 5 56 83 08 44;;;;;29; rue de Lattre de Tassigny
202;La Bouée;;;44.65466;-1.146474;Restaurant;Cuisine traditionnelle;30  boulevard Mestrezat;33120;ARCACHON;+33 5 56 54 89 29;;;;;30; boulevard Mestrezat
203;Au Blé Noir;;;45.040035;-0.1304266;Restaurant;Crèperie;261 rue Pierre Brossolette ;33230;COUTRAS;+33 5 57 69 65 13;;;;;261 rue Pierre Brossolette;
204;La Fourchette d'Elise;;;45.043568;-0.1294582;Restaurant;Cuisine traditionnelle;62  rue Gambetta;33230;COUTRAS;+33 5 57 49 32 45;;;;;62; rue Gambetta
205;La Table du buffet;;;45.016983;-0.0715409;Restaurant;Cuisine traditionnelle;place du 8 mai 1945 ;33230;COUTRAS;+33 5 57 40 71 15;;;;;place du 8 mai 1945;
206;Le Relais de l'Isle;;;45.02645;-0.055334;Restaurant;Cuisine traditionnelle;29  Troquereau;33230;COUTRAS;+33 5 57 69 68 46;;;;;29; Troquereau
207;Le Bistrot du marché;;;45.049553;-0.1218367;Restaurant;Cuisine traditionnelleBrasserie;5  rue des Bouquets;33230;COUTRAS;+33 5 57 69 41 39;;;;;5; rue des Bouquets
208;Restaurant du Château Camiac;;;44.794807;-0.385087;Hôtel restaurant;Cuisine traditionnelle;route de la Forèt RD 121;33670;CREON;+33 5 56 23 20 85;www.chateaucamiac.com;;;;route de la Forèt;RD 121
209;Brasserie Pub Saint Léon;;;44.772686;-0.3475953;Restaurant;BrasserieCuisine traditionnelle;48 boulevard de Verdun ;33670;CREON;+33 6 09 79 60 32;www.brasseriesaintleon.com;;;;48 boulevard de Verdun;
210;Le Chaudron;;;44.7738;-0.3472976;Restaurant;BrasserieCuisine traditionnelle;38  rue Amaury de Craon;33670;CREON;+33 5 56 06 73 55;;;;;38; rue Amaury de Craon
211;L'Entre Deux;;;44.771812;-0.3361558;Restaurant;BrasserieCuisine traditionnelle;route de La Sauve rond point de l'Entre-deux-Mers;33670;CREON;+33 5 56 23 38 30;;;;;route de La Sauve;rond point de l'Entre-deux-Mers
212;Le Cosy;;;44.77219;-0.3430565;Restaurant;BrasserieCuisine traditionnellePizzeria;19 bis avenue de l'Entre-deux-Mers ;33670;CREON;+33 5 56 52 24 47;;;;;19 bis avenue de l'Entre-deux-Mers;
213;Crèperie Suc' Sel;;;44.77488;-0.347745;Restaurant;Crèperie;36  place de la Prévôté;33670;CREON;+33 5 56 23 22 81;www.suc-sel.com;;;;36; place de la Prévôté
214;Mano & Co;;;44.77518;-0.3473299;Restaurant;Cuisine traditionnelle;28 rue Jean Baspeyras ;33670;CREON;+33 9 54 18 63 57;;;;;28 rue Jean Baspeyras;
215;La Table;;;44.774914;-0.348092;Restaurant;Cuisine traditionnelleBistrot / bar à  vin;22  place de la Prévôté;33670;CREON;+33 5 56 42 98 40;;;;;22; place de la Prévôté
216;Aux Repas Fermiers Houn Barrade;;;44.408295;-0.203976;Ferme auberge;Cuisine traditionnelle; ;33430;CUDOS;+33 5 56 25 44 55;www.bienvenue-a-la-ferme.com/gironde/ferme-aux-repas-fermiers-houn-barrade-63748/contact_plan_acces;;Bienvenue à  la Ferme;;;
217;L'S-caudais;;;44.310368;-0.2018308;Restaurant;BrasserieCuisine traditionnelle;3 Bourg Ouest ;33840;ESCAUDES;+33 5 56 25 22 34;www.restaurant-escaudes.fr;;;;3 Bourg Ouest;
218;Restaurant de la gare d'Espiet;;;44.78703;-0.2677752;Restaurant;Cuisine traditionnelle;Sérigeau ;33420;ESPIET;+33 5 57 24 12 48;;;;;Sérigeau;
219;Hôtel de l'Estuaire;;;45.233437;-0.5711174;Hôtel restaurant;Cuisine traditionnelle;61  rue Principale;33820;ETAULIERS;+33 5 57 64 70 36;;;;;61; rue Principale
220;Les Platanes;;;45.222176;-0.5724911;Hôtel restaurant;Cuisine traditionnelle;4  route de Saint-Savin;33820;ETAULIERS;+33 5 57 64 70 42;www.logis-gironde.fr/detail_gite.php?gite=HOTAQU03301V3EXEÂ ;2 cheminées2 cocottes;;;4; route de Saint-Savin
221;Le New Booster - Chez Bill et Véro;;;45.187904;-0.6023597;Restaurant;Cuisine traditionnelle;Le Pontet Sud Est RD 137;33390;EYRANS;+33 5 57 64 55 80;;;;;Le Pontet Sud Est;RD 137
222;Cercle de l'Union;;;44.53712;-0.2980199;Restaurant;Cuisine traditionnelle;2  Route du Stade;33210;FARGUES;+33 5 56 76 28 94;;;;;2; Route du Stade
223;Le Jep's;;;44.824238;-0.4469819;Restaurant;Brasserie;53 avenue de l'Entre-deux-Mers ;33370;FARGUES-SAINT-HILAIRE;+33 5 56 21 21 24;http://jeps-restaurant.com;;;;53 avenue de l'Entre-deux-Mers;
224;La Casa Italienne;;;44.823742;-0.4454981;Restaurant;Cuisine traditionnelle;68 avenue de l'Entre-deux-Mers ;33360;FARGUES-SAINT-HILAIRE;+33 5 56 78 49 01;www.casaitalienne.com;;;;68 avenue de l'Entre-deux-Mers;
225;Cèpe & Sarment;;;44.806053;0.0157539;Restaurant;Bistrot / bar à  vinCuisine traditionnelleBrasserie;le Bourg ;33350;FLAUJAGUES;+33 5 57 40 29 94;;;;;le Bourg;
226;La Ferme de Serres;;;44.439945;-0.1188164;Restaurant;Cuisine traditionnelle;1  Serres;33430;GAJAC;+33 5 56 25 19 32;http://lafermedeserres.blogspot.com;;Assiette de Pays;;1; Serres
227;La Saye;;;44.995777;-0.2749586;Restaurant;Cuisine traditionnelle;1 impasse du Plantis ;33133;GALGON;+33 5 57 74 32 35;;;;;1 impasse du Plantis;
228;La Filadière;;;45.06273;-0.6235599;Restaurant;Cuisine traditionnelle;11  Corniche de la Gironde;33710;GAURIAC;+33 5 57 64 94 05;www.lafiladiere.com;;;;11; Corniche de la Gironde
229;Le Bistrot de Gauriac;;;45.06813;-0.61331;Restaurant;Restauration rapide;48t Franciscot Nord ;33710;GAURIAC;+33 9 81 45 93 25;;;;;48t Franciscot Nord;
230;L'Ange Bleu;;;45.042202;-0.395203;Restaurant;Cuisine traditionnelle; ;33240;GAURIAGUET;+33 5 57 68 07 07;www.angebleu.fr;;;;;
231;Les Remparts;;;44.959698;-0.383012;Hôtel restaurant;Cuisine traditionnelle;16  rue du Château;33890;GENSAC;+33 5 57 47 43 46;www.lesremparts.net;2 cheminéesTable distinguée;;;16; rue du Château
232;L'Orée Mance;;;44.8048;0.071616;Restaurant;Cuisine traditionnelle;4  rue Carreyron;33890;GENSAC;+33 5 57 47 11 35;www.loree-mance.com;;;;4; rue Carreyron
233;L'Art de Vivre;;;44.5855;-0.0838994;Restaurant;PizzeriaCuisine traditionnelle;96 rue du Général de Gaulle ;33190;GIRONDE-SUR-DROPT;+33 5 56 71 12 88;;;;;96 rue du Général de Gaulle;
234;Chez Marian;;;45.002216;0.0061459;Restaurant;Cuisine traditionnelle;28  Cousseau;33660;GOURS;+33 5 57 41 03 58;;;;;28; Cousseau
235;Au Comté d'Ornon;;;44.769302;-0.615679;Hôtel restaurant;Cuisine traditionnelle;allée de Mégevie ;33170;GRADIGNAN;+33 5 56 75 26 85;www.aucomtedornon.com;2 cheminées2 cocottes;Qualité Tourisme;;allée de Mégevie;
236;Le Relax café;;;45.43836;-1.095983;Restaurant;BrasserieCuisine traditionnelle;rue des Bernaches ;33590;GRAYAN-ET-L'HOPITAL;+33 5 56 09 43 28;;;;;rue des Bernaches;
237;La soupe à  l'oignon;;;45.415646;-1.100008;Restaurant;Cuisine traditionnelle;29 chemin de Dépée ;33590;GRAYAN-ET-L'HOPITAL;+33 5 56 09 52 46;;;;;29 chemin de Dépée;
238;Le Méduli;;;45.436897;-1.142472;Restaurant;Cuisine traditionnelle;Le Gurp ;33590;GRAYAN-ET-L'HOPITAL;+33 5 56 09 15 60;;;;;Le Gurp;
239;Les Contes de la Mer;;;45.436897;-1.142472;Restaurant;Cuisine traditionnellePizzeria;Le Gurp ;33590;GRAYAN-ET-L'HOPITAL;+33 5 56 09 54 02;;;;;Le Gurp;
240;Voyages et Gourmandises;;;45.040474;-0.1863824;Restaurant;Crèperie;23 Grand Rue ;33230;GUITRES;+33 5 57 47 92 46;;;;;23 Grand Rue;
241;La Guérinière;;;44.636135;-1.0741978;Hôtel restaurant;Cuisine traditionnelle;18 cours de Verdun ;33470;GUJAN-MESTRAS;+33 5 56 66 08 78;www.lagueriniere.com;;Tables et Auberges de France;;18 cours de Verdun;
242;La Marine;;;44.641148;-1.0721433;Restaurant;BrasserieCuisine traditionnelle;91  port de Larros;33470;GUJAN-MESTRAS;+33 5 56 66 40 00;;;;;91; port de Larros
243;Cafétéria Crescendo;;;44.617355;-1.0753834;Restaurant;Cafétéria;Centre Commercial Grand Large ;33470;GUJAN-MESTRAS;+33 5 56 66 97 70;www.crescendo-restauration.fr;;;;Centre Commercial Grand Large;
244;Le Tégalet;;;44.638874;-1.0599768;Restaurant;Crèperie;place de la Claire ;33470;GUJAN-MESTRAS;+33 5 56 54 05 77;;;;;place de la Claire;
245;La Crèperie du Bassin;;;44.628742;-1.1108422;Restaurant;Crèperie;84 route des Lacs ;33470;GUJAN-MESTRAS;+33 5 57 15 86 68;;;;;84 route des Lacs;
246;La Vache sur le Toit;;;44.638134;-1.1126232;Restaurant;Cuisine traditionnelle;2 route des Lacs ;33470;GUJAN-MESTRAS;+33 5 57 52 42 51;;;;;2 route des Lacs;
247;Le Bistrot Gourmand;;;44.636806;-1.0708075;Restaurant;Cuisine traditionnelle;4 avenue du Maréchal Leclerc ;33470;GUJAN-MESTRAS;+33 5 57 52 45 33;;;;;4 avenue du Maréchal Leclerc;
248;Le Lodge;;;44.61685;-1.0944914;Restaurant;Cuisine traditionnelle;La Lande chemin du Loup;33470;GUJAN-MESTRAS;+33 5 57 73 00 78;www.casino-gujanmestras.fr;;;;La Lande;chemin du Loup
249;Le Rococo;;;44.640114;-1.0687449;Restaurant;Cuisine traditionnelle;24 avenue de la Gare ;33470;GUJAN-MESTRAS;+33 5 57 52 40 71;;;;;24 avenue de la Gare;
250;Le Tie Break;;;44.62512;-1.1079239;Restaurant;Cuisine traditionnelle;Tennis club de Gujan-Mestras 121 route des Lacs;33470;GUJAN-MESTRAS;+33 5 57 15 78 20;www.tennis-gujanmestras.fr;;;;Tennis club de Gujan-Mestras;121 route des Lacs
251;L'Endroit;;;44.636154;-1.0942554;Restaurant;Cuisine traditionnelle;184 avenue de Lattre de Tassigny ;33470;GUJAN-MESTRAS;+33 5 56 83 27 41;;;;;184 avenue de Lattre de Tassigny;
252;Restaurant du Golf de Gujan;;;44.6037;-1.0902214;Restaurant;Cuisine traditionnelle;route de Sanguinet ;33470;GUJAN-MESTRAS;+33 5 57 52 73 76;www.bluegreen.com;;;;route de Sanguinet;
253;Restaurant Le Khélus;;;44.619617;-1.1123657;Restaurant;Cuisine traditionnelle;Village Khélus La Hume;33470;GUJAN-MESTRAS;+33 5 56 83 92 59;www.location-salle-arcachon.comhttp://myspace.com/lekhelus;;;;Village Khélus;La Hume
254;Chez Patoune - Restaurant du Canal;;;44.641857;-1.0655682;Restaurant;Cuisine traditionnelle;3 rue des Frères Larroque ;33470;GUJAN-MESTRAS;+33 5 56 83 69 97;;;;;3 rue des Frères Larroque;
255;La Marinière;;;44.64334;-1.1141628;Restaurant;Cuisine traditionnelle;50 avenue de la Plage ;33470;GUJAN-MESTRAS;+33 5 40 70 27 48;;;;;50 avenue de la Plage;
256;Les Pavois;;;44.641502;-1.0727548;Restaurant;Cuisine traditionnelle;113 Port de Larros ;33470;GUJAN-MESTRAS;+33 5 56 66 38 71;www.restaurant-lespavois.com;;;;113 Port de Larros;
257;Lou Totem;;;44.5787;-1.102066;Restaurant;Cuisine traditionnelle;243 route des Grands Lacs ;33470;GUJAN-MESTRAS;+33 5 56 54 66 72;;;;;243 route des Grands Lacs;
258;La Humoise;;;44.63832;-1.1116361;Restaurant;Cuisine traditionnelle;place du Marché ;33470;GUJAN-MESTRAS;+33 5 56 66 59 65;;;;;place du Marché;
259;L'Escalumade;;;44.63991;-1.0729694;Restaurant;Cuisine traditionnelle;8 boulevard Pierre Dignac ;33470;GUJAN-MESTRAS;+33 5 56 66 02 30;;;;;8 boulevard Pierre Dignac;
260;Les Viviers;;;44.64081;-1.0721272;Restaurant;Cuisine traditionnelle;Port de Larros ;33470;GUJAN-MESTRAS;+33 5 56 66 01 04;www.restaurant-lesviviers.com;;;;Port de Larros;
261;Les Jardins d'Italie;;;44.613506;-1.0960578;Restaurant;Pizzeria;153  route des Grands Lacs;33470;GUJAN-MESTRAS;+33 5 56 66 35 78;;;;;153; route des Grands Lacs
262;Restaurant Chez Gigi;;;44.639023;-1.0619562;Restaurant;Pizzeria;88 cours de le République ;33470;GUJAN-MESTRAS;+33 5 56 22 20 66;;;;;88 cours de le République;
263;Pizzeria Tesy;;;44.639202;-1.1155259;Restaurant;PizzeriaCuisine traditionnelleRestauration à  thème;16 avenue de Lattre de Tassigny ;33470;GUJAN-MESTRAS;+33 5 56 66 49 46;;;;;16 avenue de Lattre de Tassigny;
264;La Féria;;;44.615982;-1.0933971;Restaurant;Restauration à  thème;Lac de la Magdeleine chemin du Loup;33470;GUJAN-MESTRAS;+33 5 57 52 48 41;www.alaferia.frwww.gujanmestrasbassindesloisirs.com;;;;Lac de la Magdeleine;chemin du Loup
265;Le Bord'Haux;;;44.735065;-0.3595775;Restaurant;Cuisine traditionnelle;224 Grand Chemin ;33550;HAUX;+33 5 57 83 08 42;;;;;224 Grand Chemin;
266;La Brasserie du Port;;;45.18109;-1.0847496;Restaurant;Brasserie;résidence Babord 1 ;33990;HOURTIN;+33 5 56 09 14 66;;;Famille Plus;;résidence Babord 1;
267;Le Café du Port;;;45.181763;-1.0848999;Restaurant;BrasserieRestauration rapide;38  résidence Babord 1;33990;HOURTIN;+33 5 56 09 29 03;;;Famille Plus;;38; résidence Babord 1
268;Les Genèts 2;;;45.223244;-1.1678391;Restaurant;Cuisine traditionnellePizzeria;14  rue des Genèts;33990;HOURTIN;+33 5 56 09 10 41;;;;;14; rue des Genèts
269;Le Surf;;;45.22349;-1.169604;Restaurant;Cuisine traditionnellePizzeria;25  avenue Jean Lafitte;33990;HOURTIN;+33 5 56 09 11 39;www.le-surf-restaurant-hourtin.com;;;;25; avenue Jean Lafitte
270;Le Ty Mad;;;45.2148;-1.1260128;Restaurant;PizzeriaGrillCrèperie;9  avenue de la Marine;33990;HOURTIN;+33 5 56 09 13 70;www.tymad-restaurant-hourtin.fr;;Famille Plus;;9; avenue de la Marine
271;Le Cigalion;;;45.186207;-1.0833886;Restaurant;Restauration rapideBistrot / bar à  vinPizzeriaBrasserie;Les Moussaillons rue des Mascottes;33990;HOURTIN;+33 5 56 59 45 10;;;;;Les Moussaillons;rue des Mascottes
272;Le Grillon;;;45.223312;-1.1680161;Restaurant;Cuisine traditionnellePizzeria;13 avenue Jean Lafitte ;33990;HOURTIN PLAGE;+33 5 56 09 32 37;www.legrillonhourtin.fr;;Famille Plus;;13 avenue Jean Lafitte;
273;Pizzeria du Port;;;45.181736;-1.0848999;Restaurant;Pizzeria;place du port ;33990;HOURTIN PORT;+33 5 56 09 18 88;;;Famille Plus;;place du port;
274;Restaurant de la Gare;;;45.187187;-1.0639464;Restaurant;Cuisine traditionnellePizzeria;27 rue de la Gare ;33990;HOURTIN VILLAGE;+33 5 56 41 92 59;;;Famille Plus;;27 rue de la Gare;
275;Le Petit Caboulot;;;44.709282;-0.4780087;Restaurant;Cuisine traditionnelle;12  place de l'Eglise;33640;ISLE-SAINT-GEORGES;+33 5 56 72 68 92;www.lepetitcaboulot.com;;;;12; place de l'Eglise
276;Le Cercle;;;44.6811;-0.5275675;Restaurant;Brasserie;11 place Montesquieu ;33650;LA BREDE;+33 5 56 88 62 14;;;;;11 place Montesquieu;
277;Le Coin Sympa;;;44.68804;-0.5172908;Restaurant;BrasserieRestauration rapide;92 avenue Charles de Gaulle ;33650;LA BREDE;+33 5 56 68 17 08;;;;;92 avenue Charles de Gaulle;
278;La Table de Montesquieu;;;44.681137;-0.527373;Restaurant;Cuisine traditionnelle;place Saint Jean d'Estampe ;33650;LA BREDE;+33 5 56 78 52 91;www.latabledemontesquieu.fr;;;;place Saint Jean d'Estampe;
279;Le Philosophe;;;44.68205;-0.5274531;Restaurant;Cuisine traditionnelle;ZAC du Filleau 1;33650;LA BREDE;+33 5 56 91 20 58;;;;;ZAC du Filleau;1
280;Les Emportés du Piccolo;;;44.683563;-0.5206736;Restaurant;GrillBrasseriePizzeria;80 avenue du Général de Gaulle ;33650;LA BREDE;+33 5 56 20 08 38;;;;;80 avenue du Général de Gaulle;
281;Les Oliviers;;;44.58344;-0.0678491;Restaurant;Cafétéria;Centre commercial de Frimont ;33190;LA REOLE;+33 5 56 61 17 24;;;;;Centre commercial de Frimont;
282;L'Echoppe;;;44.582092;-0.0395464;Restaurant;Crèperie;14 rue Peysseguin ;33190;LA REOLE;+33 5 56 61 06 28;;;;;14 rue Peysseguin;
283;Le Minerai;;;44.579727;-0.0340621;Restaurant;CrèperieCuisine traditionnelle; café de la gare 14;33190;LA REOLE;+33 5 56 71 25 35;;;;; café de la gare;14
284;Les Fontaines;;;44.583595;-0.039207;Restaurant;Cuisine traditionnelle;8  rue de Verdun;33190;LA REOLE;+33 5 56 61 15 25;;;;;8; rue de Verdun
285;Les Quat'Sauces;;;44.581898;-0.0347375;Restaurant;Cuisine traditionnelle;53 avenue du Général Leclerc ;33190;LA REOLE;+33 5 56 71 22 99;;;;;53 avenue du Général Leclerc;
286;Le Tassigny;;;44.583748;-0.040256;Restaurant;Cuisine traditionnelleGrill;9  avenue de Lattre de Tassigny;33190;LA REOLE;+33 5 56 61 12 78;;;;;9; avenue de Lattre de Tassigny
287;Le Solendo;;;44.581947;-0.0395475;Restaurant;Pizzeria;60  rue Armand Caduc;33190;LA REOLE;+33 5 56 61 46 31;;;;;60; rue Armand Caduc
288;La Strada;;;44.5822;-0.036995;Restaurant;PizzeriaCuisine traditionnelle;place de la Libération ;33190;LA REOLE;+33 5 56 61 29 08;;;;;place de la Libération;
289;Le Shun-May;;;44.581947;-0.039548;Restaurant;Restauration à  thèmeRestauration rapide;58  rue Armand Caduc;33190;LA REOLE;+33 5 56 61 24 73;;;;;58; rue Armand Caduc
290;Spécialités Orientales;;;44.58223;-0.0369393;Restaurant;Restauration rapide;1  rue Armand Caduc;33190;LA REOLE;+33 9 50 47 07 55;;;;;1; rue Armand Caduc
291;Le Face à  l'Eau;;;44.93143;-0.3193214;Restaurant;Cuisine traditionnelleRestauration à  thème;8  port de Tressac Est;33126;LA RIVIERE;+33 5 57 24 97 10;;;;;8; port de Tressac Est
292;Chez les Zucc's;;;44.78598;0.2345757;Restaurant;Cuisine traditionnelle;2 La Croix ;33220;LA ROQUILLE;+33 5 57 46 58 31;www.chez-les-zuccs.com;;;;2 La Croix;
293;Le Relais;;;44.792572;0.23056268;Restaurant;Cuisine traditionnelle;23 le Bourg Ouest ;33220;LA ROQUILLE;+33 5 57 47 90 12;;;;;23 le Bourg Ouest;
294;Le Roof;;;44.617424;-1.1182062;Hôtel restaurant;Cuisine traditionnelle;960 avenue de l'Europe ;33260;LA TESTE-DE-BUCH;+33 5 57 15 22 20;www.qualityarcachon-spa.fr;;;;960 avenue de l'Europe;
295;Le Bistrot;;;44.63306;-1.1445065;Hôtel restaurant;Cuisine traditionnelle;3  avenue Charles de Gaulle;33260;LA TESTE-DE-BUCH;+33 5 57 15 11 11;www.le-bistrot-du-centre.com;;;;3; avenue Charles de Gaulle
296;La Vie de Châteaux;;;44.631863;-1.1467516;Restaurant;Bistrot / bar à  vinBrasserie;13  rue Pierre Dignac;33260;LA TESTE-DE-BUCH;+33 5 56 22 17 14;;;;;13; rue Pierre Dignac
297;Chez Steph;;;44.632774;-1.1455768;Restaurant;Brasserie;4  place Jean Hameau;33260;LA TESTE-DE-BUCH;+33 5 56 54 68 75;;;;;4; place Jean Hameau
298;Chez Gus;;;44.63069;-1.1465435;Restaurant;Brasserie;16 place Gambetta ;33260;LA TESTE-DE-BUCH;+33 5 57 52 34 07;;;;;16 place Gambetta;
299;L'Esquirey;;;44.63324;-1.1450672;Restaurant;Brasserie;1  rue du Port;33260;LA TESTE-DE-BUCH;+33 5 56 54 67 03;;;;;1; rue du Port
300;La Chapelle;;;44.63225;-1.1504852;Restaurant;BrasserieBistrot / bar à  vinRestauration rapide;marché municipal 1 rue des Halles;33260;LA TESTE-DE-BUCH;+33 5 57 52 40 68;;;;;marché municipal;1 rue des Halles
301;Café Ferrane;;;44.615337;-1.1236953;Restaurant;BrasserieCuisine traditionnelle;341 avenue Vulcain ;33260;LA TESTE-DE-BUCH;+33 5 56 22 64 77;;;;;341 avenue Vulcain;
302;Café Marius;;;44.635887;-1.152985;Restaurant;BrasserieCuisine traditionnelleRestauration rapide;Cap Océan ;33260;LA TESTE-DE-BUCH;+33 5 56 54 23 89;;;;;Cap Océan;
303;Le Bistrot du Marché;;;44.61152;-1.1471271;Restaurant;BrasserieRestauration rapide;boulevard des Miquelots ;33260;LA TESTE-DE-BUCH;+33 5 57 52 55 30;www.le-bistrot-du-marche.com;;;;boulevard des Miquelots;
304;Cafétéria Crescendo;;;44.635498;-1.1532211;Restaurant;Cafétéria;centre commercial Cap Océan rue Lagrua;33260;LA TESTE-DE-BUCH;+33 5 57 52 63 76;;;;;centre commercial Cap Océan;rue Lagrua
305;La Rieuse;;;44.6382;-1.1531352;Restaurant;CrèperiePizzeria;24 chemin Lagrua ;33260;LA TESTE-DE-BUCH;+33 5 57 15 63 52;;;;;24 chemin Lagrua;
306;La Table des Gourmets;;;44.60295;-1.1296176;Restaurant;Cuisine traditionnelle;Hippodrome du Bequet route de Cazaux;33260;LA TESTE-DE-BUCH;+33 5 56 54 10 27;;;;;Hippodrome du Bequet;route de Cazaux
307;Les Océanides;;;44.610146;-1.1184382;Restaurant;Cuisine traditionnelle;1270  avenue Gustave Eiffel;33260;LA TESTE-DE-BUCH;+33 5 56 22 23 14;www.restaurantlesoceanides.fr;;;;1270; avenue Gustave Eiffel
308;Restaumarché;;;44.610542;-1.1476421;Restaurant;Cuisine traditionnelle;Centre Commercial Les Miquelots boulevard des Miquelots;33260;LA TESTE-DE-BUCH;+33 5 56 54 75 60;wwww.restaumarche.com;;;;Centre Commercial Les Miquelots;boulevard des Miquelots
309;Restaurant du Golf 19;;;44.637756;-1.1721897;Restaurant;Cuisine traditionnelle;35  boulevard d'Arcachon;33260;LA TESTE-DE-BUCH;+33 5 57 52 68 00;www.restaurantdugolf19.com;;;;35; boulevard d'Arcachon
310;Restaurant du Port;;;44.638245;-1.1431789;Restaurant;Cuisine traditionnelle;2  avenue des Ostréiculteurs;33260;LA TESTE-DE-BUCH;+33 5 56 54 64 81;www.restaurantduport-lateste.com;;;;2; avenue des Ostréiculteurs
311;Le Cabanon;;;44.63883;-1.1194252;Restaurant;Cuisine traditionnelle;136  avenue Charles de Gaulle;33260;LA TESTE-DE-BUCH;+33 5 56 66 93 05;www.wix.com/loeildubassin/Restaurant-Le-Cabanon;;;;136; avenue Charles de Gaulle
312;La Brochette;;;44.636597;-1.1446809;Restaurant;Cuisine traditionnelleGrillPizzeria;41  rue du Port;33260;LA TESTE-DE-BUCH;+33 5 56 66 30 11;;;;;41; rue du Port
313;Robinson Crusoà«;;;44.61615;-1.1344027;Restaurant;Cuisine traditionnelleRestauration à  thème;6  avenue Binghamton;33260;LA TESTE-DE-BUCH;+33 5 56 54 77 27;www.crusoe.fr;;;;6; avenue Binghamton
314;Le Bouzin;;;44.640663;-1.155542;Restaurant;Cuisine traditionnelleRestauration à  thème;78  rue Lagrua;33260;LA TESTE-DE-BUCH;+33 5 57 73 67 00;;;;;78; rue Lagrua
315;Courtepaille;;;44.616776;-1.1390161;Restaurant;GrillCuisine traditionnelle;1  impasse du Bosquet;33260;LA TESTE-DE-BUCH;+33 5 57 15 20 00;www.courtepaille.com;;;;1; impasse du Bosquet
316;Domaine de la Forge;;;44.60484;-1.1106;Restaurant;GrillPizzeria;route de Sanguinet ;33260;LA TESTE-DE-BUCH;+33 5 56 66 07 72;www.domainedelaforge.com;;;;route de Sanguinet;
317;Quai Ouest;;;44.637833;-1.1426293;Restaurant;PizzeriaCuisine traditionnelleRestauration rapide;4 boulevard de Curepipe ;33260;LA TESTE-DE-BUCH;+33 5 57 15 78 81;;;;;4 boulevard de Curepipe;
318;La Pizzéria Artisanale;;;44.61558;-1.135565;Restaurant;PizzeriaRestauration rapide;2  avenue de Binghamton;33260;LA TESTE-DE-BUCH;+33 5 57 15 11 51;;;;;2; avenue de Binghamton
319;Martinella Pizza;;;44.632915;-1.1486721;Restaurant;PizzeriaRestauration rapide;32  rue Victor Hugo;33260;LA TESTE-DE-BUCH;+33 5 56 66 88 42;;;;;32; rue Victor Hugo
320;Pizza Testerine;;;44.638626;-1.1456894;Restaurant;PizzeriaRestauration rapide;7  avenue du Général Leclerc;33260;LA TESTE-DE-BUCH;+33 5 56 54 57 88;;;;;7; avenue du Général Leclerc
321;Le 501;;;44.61077;-1.1252188;Restaurant;PizzeriaRestauration rapideCuisine traditionnelle;501  avenue Gustave Eiffel;33260;LA TESTE-DE-BUCH;+33 5 57 15 38 28;;;;;501; avenue Gustave Eiffel
322;Asie Gourmande;;;44.634514;-1.1535966;Restaurant;Restauration à  thème;22  avenue de Verdun;33260;LA TESTE-DE-BUCH;+33 5 56 54 93 70;;;;;22; avenue de Verdun
323;New Gui Lin;;;44.637863;-1.1347889;Restaurant;Restauration à  thème;Centre Commercial Cap Océan ;33260;LA TESTE-DE-BUCH;+33 5 56 22 88 88;;;;;Centre Commercial Cap Océan;
324;Bodéga 502;;;44.638836;-1.1362266;Restaurant;Restauration à  thème;3 boulevard de Curepipe ;33260;LA TESTE-DE-BUCH;+33 5 57 15 77 65;;;;;3 boulevard de Curepipe;
325;La Pataterie;;;44.638153;-1.1543583;Restaurant;Restauration à  thèmeCuisine traditionnelle; rue Lagrua;33260;LA TESTE-DE-BUCH;+33 5 56 66 49 75;;;;;;rue Lagrua
326;Oh Sushi;;;44.63178;-1.1463194;Restaurant;Restauration rapide;3 rue du Général Castelnau ;33260;LA TESTE-DE-BUCH;+33 9 83 01 26 80;;;;;3 rue du Général Castelnau;
327;Le Baron One;;;44.637287;-1.151502;Restaurant;Restauration rapide;18 rue Lagrua ;33260;LA TESTE-DE-BUCH;+33 5 57 72 40 51;;;;;18 rue Lagrua;
328;Le Buffet du Port;;;44.636795;-1.1445736;Restaurant;Restauration rapide;43 rue du Port ;33260;LA TESTE-DE-BUCH;+33 6 12 78 92 14;;;;;43 rue du Port;
329;Mc Donald's;;;44.61647;-1.1359691;Restaurant;Restauration rapide;3  avenue de Binghamton;33260;LA TESTE-DE-BUCH;+33 5 56 54 12 12;;;;;3; avenue de Binghamton
330;Mc Donald's La Teste Océan;;;44.645267;-1.1571693;Restaurant;Restauration rapide;106  rue Lagrua;33260;LA TESTE-DE-BUCH;+33 5 56 22 26 22;;;;;106; rue Lagrua
331;Régal Pasta;;;44.616074;-1.113739;Restaurant;Restauration rapide;960 avenue de l'Europe Le Roof;33260;LA TESTE-DE-BUCH;+33 5 56 83 33 67;;;;;960 avenue de l'Europe;Le Roof
332;Sandwicherie XXL;;;44.6313;-1.1542294;Restaurant;Restauration rapide;rue du Baou ;33260;LA TESTE-DE-BUCH;+33 6 12 34 55 67;;;;;rue du Baou;
333;Raffa'Nelli;;;44.63385;-1.1394667;Restaurant;Restauration rapidePizzeria;61  avenue Charles de Gaulle;33260;LA TESTE-DE-BUCH;+33 5 57 73 07 01;www.raffanelli.fr;;;;61; avenue Charles de Gaulle
334;La Station Gourmande;;;44.63618;-1.131992;Restaurant;Restauration rapidePizzeria;122  avenue Charles de Gaulle;33260;LA TESTE-DE-BUCH;+33 5 56 66 24 14;;;;;122; avenue Charles de Gaulle
335;L'Italienne;;;44.6326;-1.1457577;Restaurant;Restauration rapidePizzeria;2  rue Pierre Dignac;33260;LA TESTE-DE-BUCH;+33 5 56 54 29 11;;;;;2; rue Pierre Dignac
336;La Gare Gourmande;;;45.02207;-0.6382878;Restaurant;Cuisine traditionnelle;3 route des Châteaux ;;LABARDE;+33 5 56 35 92 38;www.la-gare-gourmande.fr;;;;3 route des Châteaux;
337;Chez l'Australien;;;45.001484;-1.1987439;Restaurant;Brasserie;19 allée Pierre Ortal ;33210;LACANAU;+33 5 56 03 21 02;;;;;19 allée Pierre Ortal;
338;La Conche;;;44.96734;-1.1404806;Restaurant;Cuisine traditionnelle;allée du Club de Voile baie de la Grande Escoure;;LACANAU;+33 5 56 03 08 37;;;;;allée du Club de Voile;baie de la Grande Escoure
339;La Cuisine de l'Ardilouse;;;45.00081;-1.1711275;Hôtel restaurant;Cuisine traditionnelle;Domaine de l'Ardilouse ;;LACANAU OCEAN;+33 5 56 03 92 92;www.golf-hotel-lacanau.fr;;;;Domaine de l'Ardilouse;
340;L'Authentique;;;44.992027;-1.1713421;Hôtel restaurant;Cuisine traditionnelle;route du Baganais ;33210;LACANAU OCEAN;+33 5 56 03 91 00;www.vitalparc.com;;Famille Plus;;route du Baganais;
341;Le Patio;;;44.994823;-1.178863;Hôtel restaurant;Cuisine traditionnelle;route du Baganais ;;LACANAU OCEAN;+33 5 56 03 80 00;www.hotel-vitanova.com;;;;route du Baganais;
342;L'Imprévu;;;45.000694;-1.2013936;Hôtel restaurant;Cuisine traditionnelle;front de mer ;;LACANAU OCEAN;+33 5 56 03 11 11;www.hotel-oyat.com;;;;front de mer;
343;L'Equipage;;;45.00161;-1.1974936;Restaurant;Brasserie;5  avenue de l'Europe;33680;LACANAU OCEAN;+33 5 56 03 27 43;;;Famille Plus;;5; avenue de l'Europe
344;Le Kayoc;;;45.00134;-1.2018227;Restaurant;BrasserieCuisine traditionnelle;front de Mer ;Taussat;LACANAU OCEAN;+33 5 56 03 20 75;www.restaurant-kayoc-lacanau.com;;Famille Plus;;front de Mer;
345;Le Bistrot des Cochons;;;45.002472;-1.199001;Restaurant;Cuisine traditionnelle;1  rue du Docteur Darrigan;33680;LACANAU OCEAN;+33 5 56 03 15 61;;;;;1; rue du Docteur Darrigan
346;La Garluche;;;45.00066;-1.196689;Restaurant;Cuisine traditionnelle;12  avenue Henri Seguin;33680;LACANAU OCEAN;+33 5 57 70 82 25;;;Famille Plus;;12; avenue Henri Seguin
347;L'Assiette;;;45.002964;-1.2011843;Restaurant;Restauration à  thème;boulevard de la Plage ;33138;LACANAU OCEAN;+33 5 57 70 04 72;;;Famille Plus;;boulevard de la Plage;
348;La Tasca Bodega;;;45.002735;-1.1998802;Restaurant;Restauration à  thème;8  avenue Jules Ferry;33680;LACANAU OCEAN;+33 5 57 70 56 09;;;Famille Plus;;8; avenue Jules Ferry
349;La Canne à  Sucre;;;45.002;-1.1987328;Restaurant;Restauration à  thème;11  rue Sylvain Marian;33680;LACANAU OCEAN;+33 5 56 03 21 25;;;;;11; rue Sylvain Marian
350;L'Imprévu;;;45.088673;-0.16222;Restaurant;Cuisine traditionnelle;9 route de Coutras ;33300;LAGORCE;+33 5 57 48 59 72;;;;;9 route de Coutras;
351;Crèperie Les Coquelicots;;;44.742416;0.1587596;Restaurant;Crèperie;38  route des Terroirs;33790;LANDERROUAT;+33 5 56 71 26 82;;;;;38; route des Terroirs
352;Le Saint Martin;;;44.708595;-0.40082;Restaurant;Brasserie;5  place Aimé Gouzy;33550;LANGOIRAN;+33 5 56 32 70 31;;;;;5; place Aimé Gouzy
353;Claude Darroze;;;44.552937;-0.2466122;Hôtel restaurant;Cuisine traditionnelle;95  cours du Général Leclerc;33210;LANGON;+33 5 56 63 00 48;www.darroze.com;;Tables et Auberges de France;;95; cours du Général Leclerc
354;Le Tire Bouchon;;;44.545364;-0.2638848;Hôtel restaurant;Cuisine traditionnelle;6 rue des Bruyères ;33210;LANGON;+33 5 57 98 21 65;http://hotel-atlantis.fr;;;;6 rue des Bruyères;
355;Horus - Les Bruyères;;;44.545372;-0.263909;Hôtel restaurant;Cuisine traditionnelle;2  rue des Bruyères;33210;LANGON;+33 5 56 62 36 37;www.hotel-restaurant-horus-langon.com;3 cheminées2 cocottes;Qualité Tourisme;;2; rue des Bruyères
356;Au Langonnais;;;44.550358;-0.2447842;Restaurant;Cuisine traditionnelle;78  cours du Mal de Lattre de Tassigny;33210;LANGON;+33 5 56 76 27 75;;;;;78; cours du Mal de Lattre de Tassigny
357;Le Destiné;;;44.556446;-0.2511766;Restaurant;Cuisine traditionnelle;38 cours Sadi Carnot ;33210;LANGON;+33 5 56 63 51 83;;;;;38 cours Sadi Carnot;
358;La Table Bio;;;44.55493;-0.2471663;Restaurant;Cuisine traditionnelle;62  cours des Fossés;33210;LANGON;+33 5 56 76 25 66;;;;;62; cours des Fossés
359;La Madrague;;;44.55132;-0.2450735;Restaurant;PizzeriaCuisine traditionnelle;42  cours du Mal de Lattre de Tassigny;33210;LANGON;+33 5 56 62 26 73;;;;;42; cours du Mal de Lattre de Tassigny
360;Les Places;;;45.061375;-0.542945;Restaurant;Cuisine traditionnelle;5  rue les Places;33710;LANSAC;+33 5 57 68 24 26;http://restaurantlesplaces.monsite.orange.fr/index.jhtml;;;;5; rue les Places
361;L'Océana;;;44.71957;-1.0710647;Hôtel restaurant;Cuisine traditionnelle;7  avenue Guy Célérier;33138;LANTON;+33 5 56 82 06 20;www.oceana-hotel.fr;2 cocottes2 cheminées;;;7; avenue Guy Célérier
362;Café Le Baryton;;;44.703526;-1.0388922;Restaurant;Bistrot / bar à  vin;8 avenue Paul Gauguin ;33138;LANTON;+33 5 56 82 31 83;;;;;8 avenue Paul Gauguin;
363;Moules & Co;;;44.718582;-1.0696961;Restaurant;BrasserieCuisine traditionnelle;1  place de Courcy;33138;LANTON;+33 5 56 26 47 36;;;;;1; place de Courcy
364;La Bà»cherie;;;44.793037;-0.8743646;Restaurant;Cuisine traditionnelle;route du Cap Ferret Blagon;33138;LANTON;+33 5 56 82 05 48;;;;;route du Cap Ferret;Blagon
365;La Fagotière;;;44.74142;-1.0266803;Restaurant;Cuisine traditionnelle;route de Bordeaux Blagon;33138;LANTON;+33 5 56 82 08 00;;;;;route de Bordeaux;Blagon
366;Le Falbala;;;44.72174;-1.066899;Restaurant;Cuisine traditionnelle;20  boulevard Charles de Gaulle;33138;LANTON;+33 5 57 70 58 29;www.lefalbala.biz;;;;20; boulevard Charles de Gaulle
367;Restaurant Campanile Bordeaux Le Lac;;;44.89042;-0.5645125;Hôtel restaurant;Cuisine traditionnelle;Centre Hôtelier du Lac rue du Petit Barail;33000;BORDEAUX;+33 5 56 39 54 54;www.campanile-bordeaux-lelac.com;;;;Centre Hôtelier du Lac;rue du Petit Barail
368;Le Provençal;;;44.89042;-0.564512;Hôtel restaurant;Cuisine traditionnelle;rue du Petit Barail ;33000;BORDEAUX;+33 5 56 50 39 73;www.hotel-le-provencal.net;2 cheminées1 cocotte;Qualité Tourisme;;rue du Petit Barail;
369;La Brasserie l'Europe;;;44.842487;-0.5746039;Hôtel restaurant;Cuisine traditionnelleBrasserie;Grand Hotel de Bordeaux & Spa 41761;33000;BORDEAUX;+33 5 57 30 43 47;www.ghbordeaux.com;;;Handicap auditifHandicap mentalHandicap moteur;Grand Hotel de Bordeaux & Spa;41761
370;Café Brasserie Le B35;;;44.836224;-0.5826565;Hôtel restaurant;Cuisine traditionnelleBrasserie;Hôtel Ibis Bordeaux Mériadeck 35;33000;BORDEAUX;+33 5 56 90 74 00;;;;;Hôtel Ibis Bordeaux Mériadeck;35
371;K'Fé Lounge;;;44.839252;-0.586253;Hôtel restaurant;Cuisine traditionnelleBrasserie;Hôtel Mercure Bordeaux Centre 5;33000;BORDEAUX;+33 5 56 56 43 43;www.mercure.com;;;;Hôtel Mercure Bordeaux Centre;5
372;Le Mercure - Cité Mondiale de Congrès;;;44.850235;-0.5706567;Hôtel restaurant;Cuisine traditionnelleBrasserie;18  parvis des Chartrons;33000;BORDEAUX;+33 5 56 01 78 78;www.citemondiale.com;;;;18; parvis des Chartrons
373;Courtepaille Le Lac;;;44.889385;-0.5651307;Hôtel restaurant;Cuisine traditionnelleGrill;Hôtel Ibis Bordeaux Lac rue du Petit Barail;;BORDEAUX;+33 5 56 50 96 50;www.ibishotel.com;;;;Hôtel Ibis Bordeaux Lac;rue du Petit Barail
374;P'tit Québec Café;;;44.83501;-0.587269;Hôtel restaurant;Restauration à  thème;93  rue Eugène Jacquet;33000;BORDEAUX;+33 5 56 96 54 66;;;;;93; rue Eugène Jacquet
375;Le Café Brun;;;44.841373;-0.571901;Restaurant;Bistrot / bar à  vin;45  rue Saint Rémi;33000;BORDEAUX;+33 5 56 52 20 49;;;;;45; rue Saint Rémi
376;Café Bellini;;;44.84432;-0.5759346;Restaurant;Brasserie;15  allées de Tourny;33000;BORDEAUX;+33 5 56 51 15 11;wwww.cafebellini.fr;;;;15; allées de Tourny
377;Le 21;;;44.8437;-0.5772145;Restaurant;Brasserie;21  rue Mably;33000;BORDEAUX;+33 5 57 10 77 25;;;;;21; rue Mably
378;Gabriel & Albert;;;44.835026;-0.5648209;Restaurant;Brasserie;51  rue de la Fusterie;33000;BORDEAUX;+33 5 57 95 72 60;www.gabrieletalbert.fr;;;;51; rue de la Fusterie
379;Karl;;;44.840508;-0.5720474;Restaurant;Brasserie;6  place du Parlement;33000;BORDEAUX;+33 5 56 81 01 00;www.karlbordeaux.fr;;;;6; place du Parlement
380;Le Bistro du Sommelier;;;44.838825;-0.5887554;Restaurant;Brasserie;163  rue Georges Bonnac;33000;BORDEAUX;+33 5 56 96 71 78;www.bistrodusommelier.com;;;;163; rue Georges Bonnac
381;La Boîte à  Huîtres;;;44.842457;-0.5723456;Restaurant;Brasserie;36  cours du Chapeau Rouge;33000;BORDEAUX;+33 5 56 81 64 97;;;;;36; cours du Chapeau Rouge
382;Solena;;;44.840477;-0.5903559;Restaurant;Brasserie;5  rue Chauffour;33000;BORDEAUX;+33 5 57 53 28 06;www.solena-restaurant.com;;;;5; rue Chauffour
383;Le Café Pomme;;;44.838467;-0.5836486;Restaurant;BrasserieCafétéria;Centre Commercial Mériadeck rue du Château d'Eau;33000;BORDEAUX;+33 5 56 98 48 88;www.meriadeck.com;;;Handicap auditifHandicap mentalHandicap moteurHandicap visuel;Centre Commercial Mériadeck;rue du Château d'Eau
384;La Villa Tourny;;;44.84347;-0.5758815;Restaurant;BrasserieCuisine traditionnelle;20  allées de Tourny;33000;BORDEAUX;+33 5 56 44 60 48;;;;;20; allées de Tourny
385;Simeone Dell'Arte;;;44.838623;-0.5723003;Restaurant;BrasserieCuisine traditionnelle;10  place Camille Jullian;33000;BORDEAUX;+33 5 56 52 65 32;;;;;10; place Camille Jullian
386;Bistro Regent (Clemenceau);;;44.84205;-0.5795899;Restaurant;BrasserieCuisine traditionnelle;6 cours Georges Clémenceau ;33000;BORDEAUX;+33 5 56 44 90 00;www.bistro-regent.fr;;;;6 cours Georges Clémenceau;
387;Bistro Regent (Joffre);;;44.835026;-0.5783486;Restaurant;BrasserieCuisine traditionnelle;50  rue du Maréchal Joffre;33000;BORDEAUX;+33 5 56 44 90 00;www.bistro-regent.fr;;;;50; rue du Maréchal Joffre
388;Bistro Regent (Saint Rémi);;;44.84124;-0.5731872;Restaurant;BrasserieCuisine traditionnelle;53  rue Saint Rémi;33000;BORDEAUX;+33 5 56 44 90 00;www.bistro-regent.fr;;;;53; rue Saint Rémi
389;Brasserie Le Passage St Michel;;;44.833855;-0.5659782;Restaurant;BrasserieCuisine traditionnelle;14-15 place Canteloup ;33000;BORDEAUX;+33 5 56 91 20 30;www.lepassagesaintmichel.com;;;;14-15 place Canteloup;
390;Café Français;;;44.837997;-0.5777064;Restaurant;BrasserieCuisine traditionnelle;41795  place Pey Berland;33000;BORDEAUX;+33 5 56 52 96 69;;;;;41795; place Pey Berland
391;Café Napoléon 3;;;44.843166;-0.5744004;Restaurant;BrasserieCuisine traditionnelle;6 bis  cours du XXX Juillet;33000;BORDEAUX;+33 5 56 81 52 26;www.cafenapoleon3.com;;Maître Restaurateur;;6 bis; cours du XXX Juillet
392;Café Opéra;;;44.842415;-0.5743199;Restaurant;BrasserieCuisine traditionnelle;2  place de la Comédie;33000;BORDEAUX;+33 5 56 44 07 00;www.jegher.fr;;;;2; place de la Comédie
393;Cajou Caffé;;;44.839043;-0.5721255;Restaurant;BrasserieCuisine traditionnelle;place Camille Jullian ;33000;BORDEAUX;+33 5 56 52 50 50;;;;;place Camille Jullian;
394;El Bodegon;;;44.83033;-0.5726746;Restaurant;BrasserieCuisine traditionnelle;14  place de la Victoire;33000;BORDEAUX;+33 5 56 94 74 02;;;;;14; place de la Victoire
395;La Terrasse Saint Pierre;;;44.840096;-0.5706159;Restaurant;BrasserieCuisine traditionnelle;7  place Saint Pierre;33000;BORDEAUX;+33 5 57 85 89 17;;;;;7; place Saint Pierre
396;Le Mably;;;44.843403;-0.5767131;Restaurant;BrasserieCuisine traditionnelle;12  rue Mably;33000;BORDEAUX;+33 5 56 44 30 10;www.le-mably.com;;;;12; rue Mably
397;Pub Saint-Aubin;;;44.831375;-0.5723752;Restaurant;BrasserieCuisine traditionnelle;5  place de la Victoire;33000;BORDEAUX;+33 5 56 91 28 15;;;;;5; place de la Victoire
398;Brasserie l'Atrium;;;44.88758;-0.5653452;Restaurant;BrasserieCuisine traditionnelle;Casino de Bordeaux rue du Cardinal Richaud;33000;BORDEAUX;+33 5 56 69 49 00;www.lucienbarriere.com;;;;Casino de Bordeaux;rue du Cardinal Richaud
399;La Cassolette;;;44.830544;-0.5735026;Restaurant;BrasserieCuisine traditionnelle;20  place de la Victoire;33000;BORDEAUX;+33 5 56 92 94 96;www.cassolettecafe.com;;;;20; place de la Victoire
400;Le Chapeau Rouge;;;44.84223;-0.5726041;Restaurant;BrasserieCuisine traditionnelle;34 bis cours du Chapeau Rouge ;33000;BORDEAUX;+33 5 56 44 39 11;www.le-chapeau-rouge.fr;;;;34 bis cours du Chapeau Rouge;
401;Comptoir Cuisine;;;44.842407;-0.5747717;Restaurant;BrasserieCuisine traditionnelle;2  place de la Comédie;33000;BORDEAUX;+33 5 56 56 22 33;www.comptoircuisine.com;;;;2; place de la Comédie
402;Brasserie l'Orléans;;;44.84384;-0.5735145;Restaurant;BrasserieCuisine traditionnelle;36  allée d'Orléans;33000;BORDEAUX;+33 5 56 00 50 06;www.brasserie-lorleans.fr;;;;36; allée d'Orléans
403;Café Le Dijeaux;;;44.840496;-0.5799906;Restaurant;BrasserieCuisine traditionnelle;14  ter place Gambetta;33000;BORDEAUX;+33 5 56 81 90 65;;;;;14; ter place Gambetta
404;La Mama;;;44.840004;-0.5794486;Restaurant;BrasseriePizzeriaRestauration à  thème;21  rue des remparts;33000;BORDEAUX;+33 5 56 44 67 87;www.pizzeria-la-mama.fr;;;;21; rue des remparts
405;Pizzeria Masaniello;;;44.83909;-0.5713407;Restaurant;BrasseriePizzeriaRestauration à  thème;10  rue Maucoudinat;33000;BORDEAUX;+33 5 57 30 61 50;www.pizzeriamasaniello.com;;;;10; rue Maucoudinat
406;Café Utopia;;;44.83909;-0.572373;Restaurant;BrasserieRestauration rapide;5  place Camille Jullian;33000;BORDEAUX;+33 5 56 79 39 25;www.cafejaponais.free.fr;;;;5; place Camille Jullian
407;Arty Café;;;44.841206;-0.5734956;Restaurant;BrasserieRestauration rapide;61 rue Saint-Rémi ;33000;BORDEAUX;+33 5 56 81 60 24;;;;;61 rue Saint-Rémi;
408;Cidrerie Sagardozale;;;44.84104;-0.5734677;Restaurant;Cidrerie;20  rue des Piliers de Tutelle;33000;BORDEAUX;+33 5 56 44 70 23;www.sagardozale.fr;;;;20; rue des Piliers de Tutelle
409;7ème Péché;;;44.851196;-0.5741847;Restaurant;Cuisine traditionnelle;65  cours de Verdun;33000;BORDEAUX;+33 5 56 06 42 16;www.7peche.fr;;Tables et Auberges de France;;65; cours de Verdun
410;Le Chapon Fin;;;44.84268;-0.5781621;Restaurant;Cuisine traditionnelle;5  rue Montesquieu;33000;BORDEAUX;+33 5 56 79 10 10;www.chapon-fin.com;;Tables et Auberges de FranceMaître Restaurateur;;5; rue Montesquieu
411;Le Pavillon des Boulevards;;;44.8535;-0.5929693;Restaurant;Cuisine traditionnelle;120  rue Croix de Seguey;33000;BORDEAUX;+33 5 56 81 51 02;www.lepavillondesboulevards.fr;;;;120; rue Croix de Seguey
412;Auberge'Inn;;;44.84896;-0.5933111;Restaurant;Cuisine traditionnelle;245  rue de Turenne;33000;BORDEAUX;+33 5 56 81 97 86;www.auberge-inn.fr;;;;245; rue de Turenne
413;Gravelier;;;44.851536;-0.573682;Restaurant;Cuisine traditionnelle;114  cours Verdun;33000;BORDEAUX;+33 5 56 48 17 15;www.gravelier.fr;;;;114; cours Verdun
414;Jean Ramet;;;44.843307;-0.5708974;Restaurant;Cuisine traditionnelle;41858  place Jean Jaurès;33000;BORDEAUX;+33 5 56 44 12 51;www.ramet-jean.com;;;;41858; place Jean Jaurès
415;Dubern;;;44.844063;-0.576932;Restaurant;Cuisine traditionnelle;42-44  allées de Tourny;33000;BORDEAUX;+33 5 56 79 07 70;www.dubern.fr;;;;42-44; allées de Tourny
416;L'Estacade;;;44.845695;-0.5646427;Restaurant;Cuisine traditionnelle;quai des Queyries ;33000;BORDEAUX;+33 5 57 54 02 50;www.lestacade.com;;;;quai des Queyries;
417;La Tupina;;;44.83279;-0.562062;Restaurant;Cuisine traditionnelle;6  rue Porte de la Monnaie;33000;BORDEAUX;+33 5 56 91 56 37;www.latupina.com;;;;6; rue Porte de la Monnaie
418;Agora Restaurant;;;44.843624;-0.5771059;Restaurant;Cuisine traditionnelle;19  rue Mably;33000;BORDEAUX;+33 5 57 59 81 90;;;;;19; rue Mably
419;Ice Room;;;44.859787;-0.5550479;Restaurant;Cuisine traditionnelle;quai de Bacalan hangar 19;33000;BORDEAUX;+33 5 57 00 10 15;www.iceroom.fr;;;;quai de Bacalan;hangar 19
420;L'Air de Famille;;;44.85194;-0.5751616;Restaurant;Cuisine traditionnelle;15  rue Albert Pitres;33000;BORDEAUX;+33 5 56 52 13 69;www.lairdefamille.eresto.net;;;;15; rue Albert Pitres
421;L'Antre de Peggy;;;44.84031;-0.5727895;Restaurant;Cuisine traditionnelle;45  rue de la devise;33000;BORDEAUX;+33 5 56 48 26 71;www.antre-de-peggy.fr;;Tables et Auberges de France;;45; rue de la devise
422;Le Café Rohan;;;44.838066;-0.5778457;Restaurant;Cuisine traditionnelle;1  place Pey-Berland;33000;BORDEAUX;+33 5 56 44 46 06;wwww.lecaferohan.fr;;;Handicap auditifHandicap mentalHandicap moteurHandicap visuel;1; place Pey-Berland
423;Restaurant du Musée des Arts Décoratifs;;;44.83889;-0.57999;Restaurant;Cuisine traditionnelle;39  rue Bouffard;33000;BORDEAUX;+33 5 57 59 10 42;;;;;39; rue Bouffard
424;L'Orchidée;;;44.830242;-0.5698899;Restaurant;Cuisine traditionnelle;117 cours de la Marne ;33000;BORDEAUX;+33 6 81 31 27 89;;;;;117 cours de la Marne;
425;I.Boat Restaurant;;;44.862297;-0.5542437;Restaurant;Cuisine traditionnelle;quai Armand Lalande Bassin à  flots 1;33000;BORDEAUX;+33 5 56 10 48 37;www.iboat.eu;;;;quai Armand Lalande;Bassin à  flots 1
426;La Belle Epoque;;;44.844112;-0.5705257;Restaurant;Cuisine traditionnelle;2  allées d'Orléans;33000;BORDEAUX;+33 5 56 79 14 58;www.la-belle-epoque-bordeaux.fr;;Tables et Auberges de France;;2; allées d'Orléans
427;Le Bistro du Musée;;;44.837246;-0.5772484;Restaurant;Cuisine traditionnelle;37  place Pey Berland;33000;BORDEAUX;+33 5 56 52 99 69;www.lebistrodumusee.com;;;;37; place Pey Berland
428;Le Brocéliande;;;44.84177;-0.5841609;Restaurant;Cuisine traditionnelle;15  place des Martyrs de la Résistance;33000;BORDEAUX;+33 5 56 96 38 93;;;;;15; place des Martyrs de la Résistance
429;Le Chai d'Oc;;;44.84058;-0.5710277;Restaurant;Cuisine traditionnelle;41857  rue de Mérignac;33000;BORDEAUX;+33 5 56 44 00 19;www.chaidoc.fr;;;;41857; rue de Mérignac
430;Le Jardin de Margaux;;;44.855743;-0.6014729;Restaurant;Cuisine traditionnelle;72 avenue d'Eysines ;33000;BORDEAUX;+33 5 56 02 73 67;www.lejardindemargaux.fr;;;;72 avenue d'Eysines;
431;Le Munich;;;44.827446;-0.5513763;Restaurant;Cuisine traditionnelle;66 quai de Paludate ;33000;BORDEAUX;+33 5 56 49 11 77;www.lemunich.fr;;;;66 quai de Paludate;
432;L'Incontournable;;;44.838066;-0.5709462;Restaurant;Cuisine traditionnelle;7-9 rue du Cerf Volant ;33000;BORDEAUX;+33 5 56 79 06 72;www.resto-lincontournable.com;;;;7-9 rue du Cerf Volant;
433;Restaurant du Loup;;;44.837944;-0.5745138;Restaurant;Cuisine traditionnelle;66  rue du Loup;33000;BORDEAUX;+33 5 56 48 20 21;www.restaurant-du-loup.com;;;;66; rue du Loup
434;L'Embarcadère;;;44.84028;-0.5719523;Restaurant;Cuisine traditionnelle;3  rue du Pas Saint Georges;33000;BORDEAUX;+33 5 56 52 23 29;www.l-embarcadere.com;;;;3; rue du Pas Saint Georges
435;L'Avenue Carnot;;;44.85105;-0.5956594;Restaurant;Cuisine traditionnelle;2  avenue Carnot;33000;BORDEAUX;+33 5 56 02 20 27;www.avenue-carnot.com;;;;2; avenue Carnot
436;L'Entrecôte;;;44.843243;-0.5745077;Restaurant;Cuisine traditionnelle;4  cours du XXX Juillet;33000;BORDEAUX;+33 5 56 81 76 10;www.entrecote.fr;;;;4; cours du XXX Juillet
437;Le Café Maritime;;;44.862297;-0.5542437;Restaurant;Cuisine traditionnelle;quai Armand Lalande Hangar G2;33000;BORDEAUX;+33 5 57 10 20 40;www.cafemaritime.com;;;;quai Armand Lalande;Hangar G2
438;Le Bistrot du Gabriel;;;44.84147;-0.5705031;Restaurant;Cuisine traditionnelle;10  place de la Bourse;33000;BORDEAUX;+33 5 56 30 00 80;www.bistrot.bordeaux-gabriel.fr;;;;10; place de la Bourse
439;Le Gabriel;;;44.84147;-0.5705031;Restaurant;Cuisine traditionnelle;10  place de la Bourse;33000;BORDEAUX;+33 5 56 30 00 80;www.bordeaux-gabriel.fr;;;;10; place de la Bourse
440;La Petite Gironde;;;44.848736;-0.5629085;Restaurant;Cuisine traditionnelle;75  quai des Queyries;33000;BORDEAUX;+33 5 57 80 33 33;www.lapetitegironde.fr;;;;75; quai des Queyries
441;Chez Greg - Le Grand Théâtre;;;44.843063;-0.57384;Restaurant;Cuisine traditionnelle;29  rue Esprit des Lois;33000;BORDEAUX;+33 5 56 31 30 30;www.chezgreg.fr;;;;29; rue Esprit des Lois
442;La Tartiflette;;;44.840656;-0.5704606;Restaurant;Cuisine traditionnelle;5  rue des Faussets;33000;BORDEAUX;+33 5 56 81 04 87;www.latartiflette.monsite-orange.fr;;;;5; rue des Faussets
443;Chez Maman;;;44.84136;-0.5719085;Restaurant;Cuisine traditionnelle;30 rue Saint-Rémi ;33000;BORDEAUX;+33 5 56 52 61 33;;;;;30 rue Saint-Rémi;
444;Brasserie Chez Julio;;;44.841827;-0.5740478;Restaurant;Cuisine traditionnelleBrasserie;4-6 rue de la Maison Daurade ;33000;BORDEAUX;+33 5 56 52 44 65;;;;;4-6 rue de la Maison Daurade;
445;Café Bastide;;;44.84343;-0.5578681;Restaurant;Cuisine traditionnelleBrasserie;69  allées de Serr;33000;BORDEAUX;+33 5 56 86 83 31;;;;;69; allées de Serr
446;Comptoir d'Ornano;;;44.83256;-0.594744;Restaurant;Cuisine traditionnelleBrasserie;227 rue d'Ornano ;33000;BORDEAUX;+33 5 56 98 43 63;www.comptoirdornano.fr;;;;227 rue d'Ornano;
447;Le Jardin des Gastronomes;;;44.83975;-0.5706334;Restaurant;Cuisine traditionnelleBrasserie;1  place Saint-Pierre;33000;BORDEAUX;+33 5 57 85 90 35;;;;;1; place Saint-Pierre
448;Le Port de la Lune;;;44.827717;-0.5519617;Restaurant;Cuisine traditionnelleBrasserie;58-59  quai de Paludate;33000;BORDEAUX;+33 5 56 49 15 55;www.leportdelalune.com;;;;58-59; quai de Paludate
449;Le Café du Port;;;44.83972;-0.5600311;Restaurant;Cuisine traditionnelleBrasserie;1  quai Deschamps;33000;BORDEAUX;+33 5 56 77 81 18;www.lecafeduport.com;;;;1; quai Deschamps
450;Chez Jean;;;44.8407;-0.5718079;Restaurant;Cuisine traditionnelleBrasserie;1  place du Parlement;33000;BORDEAUX;+33 5 56 44 44 43;www.chezjeanbordeaux.fr;;;;1; place du Parlement
451;Ibaia Café;;;44.849815;-0.5699586;Restaurant;Cuisine traditionnelleRestauration à  thème;quai des Chartrons ;33000;BORDEAUX;+33 5 56 00 45 35;www.ibaiacafe.Fr;;;;quai des Chartrons;
452;Jegher - L'orangerie du Jardin Public;;;44.8412;-0.5743938;Restaurant;Cuisine traditionnelleRestauration à  thème;Jardin Public 185;33000;BORDEAUX;+33 56 48 24 41;www.jegher.fr;;;;Jardin Public;185
453;La Raclette;;;44.840813;-0.5717214;Restaurant;Cuisine traditionnelleRestauration à  thème;22  rue Fernand Philippart;33000;BORDEAUX;+33 5 56 44 59 52;;;;;22; rue Fernand Philippart
454;C'yusha Restaurant;;;44.838287;-0.568372;Restaurant;Cuisine traditionnelleRestauration à  thème;12  rue Ausone;33000;BORDEAUX;+33 5 56 69 89 70;www.cyusha.com;;;;12; rue Ausone
455;La Terre;;;44.836304;-0.5714789;Restaurant;Restauration à  thème;18  rue Saint James;33000;BORDEAUX;+33 5 56 30 32 55;;;;;18; rue Saint James
456;Au Bonheur du Palais;;;44.832623;-0.5771899;Restaurant;Restauration à  thème;72-74  rue Paul-Louis Lande;33000;BORDEAUX;+33 5 56 94 38 63;www.abdp.free.fr;;;;72-74; rue Paul-Louis Lande
457;Café Japonais;;;44.838974;-0.5731599;Restaurant;Restauration à  thème;22  rue Saint-Siméon;33000;BORDEAUX;+33 5 56 48 68 68;www.cafejaponais.free.fr;;;;22; rue Saint-Siméon
458;Fuxia;;;44.843796;-0.5737186;Restaurant;Restauration à  thème;40 allées d'Orléans ;33000;BORDEAUX;+33 5 56 52 81 23;www.fuxia.fr;;;Handicap mentalHandicap moteurHandicap visuel;40 allées d'Orléans;
459;Raffaele Ristorante;;;44.839207;-0.5719826;Restaurant;Restauration à  thème;30  rue du Pas Saint Georges;33000;BORDEAUX;+33 5 57 85 90 13;;;;;30; rue du Pas Saint Georges
460;Koh I Noor;;;44.840923;-0.5707436;Restaurant;Restauration à  thème;3 rue Puits Descujols ;33820;BORDEAUX;+33 5 56 51 17 55;;;;;3 rue Puits Descujols;
461;Punjab;;;44.84137;-0.5725305;Restaurant;Restauration à  thème;39  rue Saint-Rémi;33000;BORDEAUX;+33 5 56 79 02 00;;;;;39; rue Saint-Rémi
462;Le Taj Mahal;;;44.84054;-0.5737137;Restaurant;Restauration à  thème;24  rue du Parlement Sainte Catherine;33000;BORDEAUX;+33 5 56 51 92 05;www.tajmahalbordeaux.fr;;;;24; rue du Parlement Sainte Catherine
463;Carioca;;;44.839447;-0.5814259;Restaurant;Restauration à  thème;30  rue du Dr Charles Nancel Penard;33000;BORDEAUX;+33 5 56 51 34 00;www.carioca-bordeaux.com;;;;30; rue du Dr Charles Nancel Penard
464;La Taverne Bavaroise;;;44.89285;-0.5713319;Restaurant;Restauration à  thèmeCuisine traditionnelle;Parc des Expositions BP 19;33350;BORDEAUX;+33 5 56 50 91 20;www.espacedulac.fr;;;;Parc des Expositions;BP 19
465;Baud et Millet;;;44.844746;-0.5792404;Restaurant;Restauration à  thèmeCuisine traditionnelleBistrot / bar à  vin;19  rue Huguerie;33000;BORDEAUX;+33 5 56 79 05 77;www.baudetmillet.fr;;;;19; rue Huguerie
466;Colombus Café;;;44.841694;-0.5810429;Restaurant;Restauration rapide;38 place Gambetta ;33410;BORDEAUX;+33 5 56 52 48 18;www.columbuscafe.com;;;Handicap auditifHandicap mentalHandicap moteurHandicap visuel;38 place Gambetta;
467;Quick Restaurant;;;44.838314;-0.5842065;Restaurant;Restauration rapideCafétéria;Centre Commercial Mériadeck rue du Château d'Eau;33410;BORDEAUX;+33 5 56 08 95 07;www.quick.fr;;;Handicap auditifHandicap mentalHandicap moteurHandicap visuel;Centre Commercial Mériadeck;rue du Château d'Eau
468;Le Saint-James;;;44.813953;-0.503427;Hôtel restaurant;Cuisine traditionnelle;3  place Camille Hostein;33270;BOULIAC;+33 5 57 97 06 00;www.saintjames-bouliac.com;;;;3; place Camille Hostein
469;L'Auberge du Marais;;;44.811436;-0.5062128;Restaurant;Cuisine traditionnelle;22 route de Latresne ;33270;BOULIAC;+33 5 56 20 52 17;www.aubergedumarais.fr;;Maître Restaurateur;;22 route de Latresne;
470;Le Flaà¼tat;;;44.569927;0.01647949;Hôtel restaurant;Cuisine traditionnelle;Route Nationale 113 ;33880;BOURDELLES;+33 5 56 71 00 37;;;;;Route Nationale 113;
471;Le Plaisance;;;45.038788;-0.5569767;Restaurant;Cuisine traditionnelleBrasserie;4 place Eugène Marchal ;33710;BOURG;+33 5 57 68 45 34;www.restaurant-le-plaisance.com;;;;4 place Eugène Marchal;
472;L'Hippocampe Bleu;;;45.039696;-0.5595596;Restaurant;Restauration à  thème;3  rue du 4 septembre;33710;BOURG;+33 5 57 68 37 00;;;;;3; rue du 4 septembre
473;L'Esprit des Lieux;;;45.039654;-0.5586888;Restaurant;Restauration rapide;place de la Libération ;33710;BOURG;+33 5 57 43 99 86;;;;;place de la Libération;
474;Cosy Café;;;45.039288;-0.5587743;Restaurant;Restauration rapide;9 place de la Libération ;33121;BOURG;+33 6 23 38 04 31;;;;;9 place de la Libération;
475;Auberge de la Haute-Lande;;;44.368008;-0.45382;Restaurant;Cuisine traditionnelle;5  le Bourg Nord;33113;BOURIDEYS;+33 5 56 25 74 84;;;;;5; le Bourg Nord
476;Le Caffé Cuisine;;;44.82938;-0.1863236;Restaurant;Cuisine traditionnelle;7  place du Marché;33420;BRANNE;+33 5 57 24 19 67;;;;;7; place du Marché
477;Le Marainaud;;;45.284428;-0.6991767;Restaurant;Cuisine traditionnelle;1 les Nouvelles Possessions ;33350;BRAUD-ET-SAINT-LOUIS;+33 5 57 32 48 48;;;;;1 les Nouvelles Possessions;
478;Le Bistro d'Antan;;;44.895775;-0.5920027;Restaurant;Bistrot / bar à  vinCuisine traditionnelle;avenue de Verdun Galerie Les Bruyères;33260;BRUGES;+33 5 56 28 49 50;www.bistrotdantan.fr;;Maître Restaurateur;;avenue de Verdun;Galerie Les Bruyères
479;Le Relais du Château;;;44.533237;-0.385365;Restaurant;Cuisine traditionnelle;2 rue du 14 juillet ;33260;BUDOS;+33 5 56 62 58 17;;;;;2 rue du 14 juillet;
480;Le Relais;;;44.60589;-0.553529;Hôtel restaurant;Cuisine traditionnelle;2 place de Ségur ;33260;CABANAC-ET-VILLAGRAINS;+33 5 57 80 44 89;;;;;2 place de Ségur;
481;Gabare Restaurant La Lamproie;;;44.827312;-0.1584567;Restaurant;Cuisine traditionnelle; ;33260;CABARA;+33 6 80 02 54 83;;;;;;
482;La Plaine de Moscou;;;44.736687;-0.5364947;Restaurant;Cuisine traditionnelle;2830  avenue de Toulouse;33140;CADAUJAC;+33 5 56 30 73 60;;;;;2830; avenue de Toulouse
483;Hôtel Restaurant Detrée;;;44.63631;-0.323163;Hôtel restaurant;Cuisine traditionnelle;22  avenue du Pont;33410;CADILLAC;+33 5 56 62 65 38;;;;;22; avenue du Pont
484;La Crèperie;;;44.637424;-0.3191194;Restaurant;Crèperie;22 rue du Général de Gaulle ;33410;CADILLAC;+33 5 56 76 27 97;;;;;22 rue du Général de Gaulle;
485;L'Entrée Jardin;;;44.63553;-0.3243112;Restaurant;Cuisine traditionnelle;27  rue du Pont;33410;CADILLAC;+33 5 56 76 96 96;www.restaurant-cadillac.com;;Maître Restaurateur;;27; rue du Pont
486;Au Fin Gourmet;;;44.637184;-0.320833;Restaurant;Cuisine traditionnelle;6  place de la République;33410;CADILLAC;+33 5 56 62 90 80;;;;;6; place de la République
487;Les Remparts;;;44.636814;-0.321776;Restaurant;PizzeriaCuisine traditionnelleGrill;2  allée de Lattre de Tassigny;33410;CADILLAC;+33 5 56 76 90 77;www.pizzeria-les-remparts.com;;;;2; allée de Lattre de Tassigny
488;Le Petit Naples;;;44.63658;-0.3209637;Restaurant;PizzeriaRestauration à  thème;7  porte de la Mer;33410;CADILLAC;+33 5 56 27 47 63;www.lepetitnaples-cadillac.fr;;;;7; porte de la Mer
489;Bistrot de L'Entre-deux-Mers;;;44.83316;-0.3632109;Restaurant;Cuisine traditionnelle;15  route de Bergerac;33750;CAMARSAC;+33 5 56 30 18 90;;;;;15; route de Bergerac
490;L'As de Carreau;;;44.732494;-0.462423;Restaurant;Brasserie;21 place Sadi Carnot ;33360;CAMBES;+33 5 56 78 73 76;;;;;21 place Sadi Carnot;
491;La Maison du Fleuve;;;44.7676;-0.50607;Restaurant;Cuisine traditionnelle;20  chemin Seguin;33360;CAMBLANES-ET-MEYNAC;+33 5 56 20 06 40;www.maison-du-fleuve.com;;;;20; chemin Seguin
492;La ferme nature de Marahans;;;44.29836;-0.2614402;Restaurant;Cuisine traditionnelle;lieu dit Marahans ;33138;CAPTIEUX;+33 9 82 25 72 85;http://ferme-nature-marahans.com;;;;lieu dit Marahans;
493;Les Mouettes;;;45.082935;-1.1875697;Restaurant;PizzeriaCuisine traditionnelle;4 place Marcel Prévot ;33121;CARCANS;+33 5 56 03 32 50;;;;;4 place Marcel Prévot;
494;Snack de la Plage;;;45.088604;-1.0428554;Restaurant;Restauration rapide;Domaine de Bombannes ;33121;CARCANS;+33 5 57 70 12 23;;;Famille Plus;;Domaine de Bombannes;
495;Le Mini Golf de Maubuisson;;;45.06677;-1.139027;Restaurant;Cuisine traditionnelleBrasserieRestauration rapide;83  avenue de Maubuisson;33121;CARCANS-MAUBUISSON;+33 5 56 03 04 29;;;Famille Plus;;83; avenue de Maubuisson
496;Chez Heidi;;;45.081924;-1.1894524;Restaurant;Restauration à  thème;avenue des Dunes ;33121;CARCANS-OCEAN;+33 5 56 03 42 92;;;;;avenue des Dunes;
497;Pizza Milano;;;44.81092;-0.4774402;Restaurant;Pizzeria;18  rue Lartigotte;33360;CARIGNAN-DE-BORDEAUX;+33 5 56 21 12 88;http://pizzamilano.wifeo.com;;;;18; rue Lartigotte
498;L'Escale Chez Olga;;;45.200184;-0.5903434;Hôtel restaurant;Cuisine traditionnelle;15 route de Saintes ;33138;CARTELEGUE;+33 5 57 64 71 18;www.chez-olga.com;;;;15 route de Saintes;
499;Le Phénix;;;44.85383;-0.042633;Hôtel restaurant;Cuisine traditionnelle;24  place Pierre Orus;33350;CASTILLON-LA-BATAILLE;+33 5 57 40 00 14;www.hotel-restaurant-lephenix.frcaroleportier@orange.fr;;;;24; place Pierre Orus
500;La Fontaine de Manon;;;44.85438;-0.0457421;Restaurant;Cuisine traditionnelle;57  rue Victor Hugo;33350;CASTILLON-LA-BATAILLE;+33 5 57 40 24 48;;;;;57; rue Victor Hugo
501;Le Mounan;;;44.852066;-0.043008;Restaurant;PizzeriaCuisine traditionnelle;route de Bergerac ;33360;CASTILLON-LA-BATAILLE;+33 5 57 40 38 19;;;;;route de Bergerac;
502;La Paillotte;;;45.10232;-0.388482;Hôtel restaurant;Cuisine traditionnelle;103 avenue de Paris ;33360;CAVIGNAC;+33 5 57 58 98 90;;;;;103 avenue de Paris;
503;Auberge de Cazalis;;;44.342766;-0.379161;Restaurant;Cuisine traditionnelleBistrot / bar à  vin;6 le bourg ;;CAZALIS;+33 5 56 65 41 44;;;;;6 le bourg;
504;Le 28;;;44.536682;-1.1533069;Hôtel restaurant;Cuisine traditionnellePizzeria;28  avenue de Verdun;33260;CAZAUX;+33 5 56 22 90 59;www.levingthuit.com;;;;28; avenue de Verdun
505;La Mise en Bouche;;;44.540142;-1.1565775;Restaurant;Cuisine traditionnelle;route de Cazaux ;33290;CAZAUX;+33 5 56 66 35 14;;;;;route de Cazaux;
506;Le Bô Site;;;44.529205;-1.1655739;Restaurant;Cuisine traditionnelle;rue Osmin Dupuy ;33290;CAZAUX;+33 5 56 22 52 25;;;;;rue Osmin Dupuy;
507;Le Voilier;;;44.52564;-1.1700439;Restaurant;Cuisine traditionnellePizzeriaGrill;rue Osmin Dupuy ;33290;CAZAUX;+33 5 56 66 10 85;;;;;rue Osmin Dupuy;
508;Camping la Pinéda;;;44.555187;-1.1498737;Restaurant;Cuisine traditionnelleRestauration rapide;route de Cazaux ;33290;CAZAUX;+33 5 56 22 23 24;www.campinglapinede.net;;;;route de Cazaux;
509;Key West;;;44.52605;-1.170238;Restaurant;Cuisine traditionnelleRestauration rapideGrill;Plage de Cazaux esplanade Jean Labat;33290;CAZAUX;+33 6 86 48 80 09;;;;;Plage de Cazaux;esplanade Jean Labat
510;Larrouet;;;44.527107;-1.1635208;Restaurant;Restauration rapide;Halte nautique ;33290;CAZAUX;+33 5 56 66 75 83;;;;;Halte nautique;
511;Laouga;;;44.521416;-1.1744213;Restaurant;Restauration rapideCuisine traditionnelle;Plage Laouga ;33290;CAZAUX;+33 5 56 22 71 13;;;;;Plage Laouga;
512;Uhaà¯na Plage;;;44.520805;-1.1743783;Restaurant;Restauration rapideCuisine traditionnelle;Plage Laouga ;33290;CAZAUX;+33 5 56 22 14 84;;;;;Plage Laouga;
513;Pizzas Cazalins;;;44.5369;-1.1532211;Restaurant;Restauration rapidePizzeria;18  avenue de Verdun;33260;CAZAUX;+33 5 56 22 14 62;;;;;18; avenue de Verdun
514;Aux Délices du Lac de Cazaux;;;44.531666;-1.1609673;Restaurant;Restauration rapidePizzeria;74  rue Osmin Dupuy;33260;CAZAUX;+33 5 56 22 96 73;;;;;74; rue Osmin Dupuy
515;Les Acacias;;;44.778923;-0.4621736;Restaurant;Brasserie;8 avenue de la République ;33470;CENAC;+33 5 56 92 57 40;;;;;8 avenue de la République;
516;Ze Rock;;;44.85774;-0.530906;Restaurant;Brasserie;1 bis rue Aristide Briand Parc Palmer;;CENON;+33 5 57 54 12 94;;;;;1 bis rue Aristide Briand;Parc Palmer
517;Labelle de Midi;;;44.77138;-0.7146622;Restaurant;Cuisine traditionnelle;53  avenue de Lattre-de-Tassigny;33610;CESTAS;+33 5 56 36 65 36;www.labelledemidi.com;;;;53; avenue de Lattre-de-Tassigny
518;Le Philéas Fogg;;;45.111748;-0.4422037;Restaurant;Cuisine traditionnelle;33  le Bourg;33920;CIVRAC-DE-BLAYE;+33 5 57 68 29 20;;;;;33; le Bourg
519;Le Flore;;;44.691525;-0.167321;Restaurant;Cuisine traditionnelle;1  Petit Champ du Bourg;33540;COIRAC;+33 5 56 71 57 47;;;;;1; Petit Champ du Bourg
520;Le Saint Sabastien;;;45.34422;-0.848809;Restaurant;Cuisine traditionnelle;11  rue Charles Plumeau;33340;COUQUEQUES;+33 5 56 41 38 65;www.saintsabastien.com;;;;11; rue Charles Plumeau
521;L'Oxalis;;;44.7026;-1.0401288;Restaurant;Cuisine traditionnelle;3 avenue Paul Gauguin ;33950;LANTON;+33 5 56 60 41 14;;;;;3 avenue Paul Gauguin;
522;Le Quai des Brumes;;;44.71118;-1.0547977;Restaurant;Cuisine traditionnelle;21  avenue de la République;33138;LANTON;+33 5 56 03 04 74;;;;;21; avenue de la République
523;Les Fontaines;;;44.725266;-1.0709217;Restaurant;Cuisine traditionnelle;17  avenue Jean Bart;33138;LANTON;+33 5 56 82 13 86;www.restaurant-les-fontaines.com;;;;17; avenue Jean Bart
524;Le Cabanon;;;44.714294;-1.0665321;Restaurant;Cuisine traditionnelle;Port de Cassy ;33950;LANTON;+33 5 56 82 99 54;;;;;Port de Cassy;
525;Le Platane;;;44.72114;-1.065694;Restaurant;Cuisine traditionnelle;au vieux port de Taussat ;33138;LANTON;+33 5 56 60 58 98;;;;;au vieux port de Taussat;
526;La Marine;;;44.705486;-1.04338;Restaurant;Cuisine traditionnelleGrillPizzeriaBrasserieRestauration à  thème;Domaine du Roumingue avenue de la Libération;33138;LANTON;+33 5 57 17 17 94;;;;;Domaine du Roumingue;avenue de la Libération
527;El Caliente;;;44.709236;-1.0511696;Restaurant;Restauration rapide;20 bis avenue de la république ;33138;LANTON;+336 05 13 84 99;;;;;20 bis avenue de la république;
528;Ferme auberge La Gabaye;;;45.124077;-0.274675;Ferme auberge;Cuisine traditionnelle;La Glaive 2 ;33950;LAPOUYADE;+33 5 57 49 42 09;www.lagabaye.com;;Bienvenue à  la Ferme;;La Glaive 2;
529;Le Laromet;;;44.65809;-0.29628;Restaurant;Brasserie;Lac de Laromet ;Grand Piquey;LAROQUE;33556621100;;;;;Lac de Laromet;
530;Chez Edonys et Noam;;;44.786095;-0.4860197;Restaurant;Cuisine traditionnelle;Les Terrasses de Latresne 2 rue de l'Eglise;Cap Ferret;LATRESNE;+33 5 56 20 73 27;;;;;Les Terrasses de Latresne;2 rue de l'Eglise
531;Restaurant de la Gare;;;44.7835;-0.4961764;Restaurant;Cuisine traditionnelleBistrot / bar à  vin;11 avenue de la Libération ;33970;LATRESNE;+33 5 56 91 56 03;;;;;11 avenue de la Libération;
532;Le Résinier;;;44.635715;-0.752273;Hôtel restaurant;Cuisine traditionnelle;68  avenue des Pyrénées;33114;LE BARP;+33 5 56 88 60 07;www.leresinier.com;3 cheminées3 cocottes;Assiette de PaysMaître Restaurateur;;68; avenue des Pyrénées
533;Le Père Ouvrard;;;44.85496;-0.595161;Restaurant;Cuisine traditionnelle;39 avenue de la Libération ;Cap Ferret;LE BOUSCAT;+33 5 56 02 02 04;;;;;39 avenue de la Libération;
534;Hôtel-Golf du Médoc - La Table du Médoc et Le Club;;;44.945026;-0.703124;Hôtel restaurant;BrasserieCuisine traditionnelle;chemin de Courmateau ;33970;LE PIAN-MEDOC;+33 5 56 70 31 31;www.hotelgolfdumedoc.com;;;;chemin de Courmateau;
535;Le Pont Bernet;;;44.954594;-0.703305;Hôtel restaurant;Cuisine traditionnelle;route de Soulac ;Lège;LE PIAN-MEDOC;+33 5 56 70 20 19;www.pont-bernet.fr;2 cheminées3 cocottes;Qualité Tourisme;;route de Soulac;
536;La Typolia;;;44.887234;-1.213574;Restaurant;Brasserie;6  avenue du Gressier;33680;LE PORGE;+33 5 56 26 57 98;www.typolia-bar.com;;;;6; avenue du Gressier
537;Le Galip;;;44.887234;-1.213574;Restaurant;Brasserie;9  avenue de Gressier;33680;LE PORGE;+33 5 57 70 02 10;;;;;9; avenue de Gressier
538;L'Ajoncière;;;44.892025;-1.1848345;Restaurant;Brasserie;5  avenue du Gressier;33680;LE PORGE;+33 5 56 26 57 64;;;;;5; avenue du Gressier
539;Le Bikini Café;;;44.893322;-1.212809;Restaurant;Brasserie;3  avenue du Gressier;33680;LE PORGE;+33 5 56 26 57 15;;;;;3; avenue du Gressier
540;L'Auberge du Porge;;;44.873604;-1.0921204;Restaurant;Cuisine traditionnelle;15  avenue de Bordeaux;33680;LE PORGE;+33 5 57 70 02 09;;;;;15; avenue de Bordeaux
541;Le Courtiou Café Del Sol;;;44.83895;-1.1533927;Restaurant;PizzeriaBistrot / bar à  vinBrasserie;59  route de la Jenny;33680;LE PORGE;+33 5 56 26 58 15;;;;;59; route de la Jenny
542;Le Parc des Charmilles;;;44.655468;0.07651805;Restaurant;Cuisine traditionnelle;1  Prairie Bidu;33580;LE PUY;+33 5 56 71 99 39;;;;;1; Prairie Bidu
543;Le Central Café;;;44.635345;-1.0225009;Hôtel restaurant;Cuisine traditionnelle;61 avenue de la Côte d'Argent ;33970;LE TEICH;+33 5 56 22 65 64;www.lecentralcafe.com;;;;61 avenue de la Côte d'Argent;
544;Brasserie du Delta;;;44.64063;-1.0197973;Restaurant;Brasserie;1 rue du Port BP 11;33970;LE TEICH;+33 5 56 22 80 93;;;Assiette de Pays;;1 rue du Port;BP 11
545;Lybia Pizza;;;44.635864;-1.0239386;Restaurant;Pizzeria;4  avenue des Castaings;33470;LE TEICH;+33 5 57 15 32 71;;;;;4; avenue des Castaings
546;Le Chaland au Temple;;;44.87891;-0.99231;Restaurant;BrasserieRestauration à  thème;26 route du Porge ;33970;LE TEMPLE;+33 5 56 26 57 64;;;;;26 route du Porge;
547;Restaurant des Pins;;;44.653084;-1.2440943;Hôtel restaurant;Cuisine traditionnelle;23  rue des Fauvettes;33970;LEGE-CAP FERRET;+33 5 56 60 60 11;www.hoteldespins.eu;;;;23; rue des Fauvettes
548;Chez Magne;;;44.69148;-1.2329578;Hôtel restaurant;Cuisine traditionnelle;1  avenue de l'Herbe;33950;LEGE-CAP FERRET;+33 5 56 60 50 15;;;;;1; avenue de l'Herbe
549;Le Pavillon Bleu;;;44.655285;-1.2524414;Hôtel restaurant;Cuisine traditionnelle;75  avenue de l'Océan;33970;LEGE-CAP FERRET;+33 5 56 60 65 48;www.hotel-pavillonbleu.com;;;;75; avenue de l'Océan
550;Le Relais du Cap;;;44.744995;-1.1809444;Hôtel restaurant;Cuisine traditionnelle;19  avenue du Général de Gaulle;33950;LEGE-CAP FERRET;+33 5 56 60 70 48;www.hotel-relais-du-cap.com;;;;19; avenue du Général de Gaulle
551;Wharfzazate;;;44.67442;-1.2408328;Restaurant;Bistrot / bar à  vinCuisine traditionnelle;Port de La Vigne La Vigne;33950;LEGE-CAP FERRET;+33 5 56 60 90 18;;;;;Port de La Vigne;La Vigne
552;Couleur Ferret;;;44.674236;-1.2405967;Restaurant;Bistrot / bar à  vinCuisine traditionnelle;Port de La Vigne 5 rue de Teinturin;33950;LEGE-CAP FERRET;+33 5 56 03 68 09;;;;;Port de La Vigne;5 rue de Teinturin
553;La Bodéga du Canon;;;44.701115;-1.2296655;Restaurant;Bistrot / bar à  vinCuisine traditionnelle;173 route du Cap Ferret Le Canon;33970;LEGE-CAP FERRET;+33 6 88 12 97 64;;;;;173 route du Cap Ferret;Le Canon
554;La Madrague;;;44.797794;-1.2267136;Restaurant;Brasserie;Grand Crohot Océan Lège Océan;33950;LEGE-CAP FERRET;+33 5 56 60 33 54;;;;;Grand Crohot Océan;Lège Océan
555;Côte Ouest;;;44.650093;-1.2449312;Restaurant;BrasserieCuisine traditionnelle;67  boulevard de la Plage;33970;LEGE-CAP FERRET;+33 5 56 60 66 23;;;;;67; boulevard de la Plage
556;Le Pit;;;44.748867;-1.1806011;Restaurant;BrasseriePizzeria;2  avenue du Général de Gaulle;33950;LEGE-CAP FERRET;+33 5 56 60 70 39;;;;;2; avenue du Général de Gaulle
557;Crèperie du Port;;;44.74527;-1.1745929;Restaurant;Crèperie;Port de Claouey Claouey;33950;LEGE-CAP FERRET;+33 5 56 60 73 52;;;;;Port de Claouey;Claouey
